{"type":"FeatureCollection","features":[{"type": "Feature", "geometry": {"type": "Point", "coordinates": [-99.177607, 19.371308]}, "properties": {"districtcode": "1", "nearbystations_0": 390, "name": "416 RECREO-PARROQU\u00cdA", "stationtype": "BIKE", "zipcode": "3104", "location_lat": 19.371308, "addressnumber": "S/N", "districtname": "Ampliaci\u00f3n Granada", "id": 416, "nearbystations_2": 415, "nearbystations_1": 391, "location_lon": -99.177607, "punto_geo": [19.371308, -99.177607], "address": "416 - Recreo-Parroqu\u00eda"}},{"type": "Feature", "geometry": {"type": "Point", "coordinates": [-99.168669, 19.36065]}, "properties": {"districtcode": "1", "nearbystations_0": 433, "name": "440 REAL DE MAYORAZGO-PUENTE XOCO", "stationtype": "BIKE", "zipcode": "3330", "location_lat": 19.36065, "addressnumber": "S/N", "districtname": "Ampliaci\u00f3n Granada", "id": 440, "nearbystations_2": 441, "nearbystations_1": 439, "location_lon": -99.168669, "punto_geo": [19.36065, -99.168669], "address": "440 - Real De Mayorazgo-Puente Xoco"}},{"type": "Feature", "geometry": {"type": "Point", "coordinates": [-99.169718, 19.411272]}, "properties": {"districtcode": "1", "nearbystations_0": 69, "name": "70 PARQUE MEXICO-MICHOACAN", "stationtype": "BIKE,TPV", "zipcode": "06100", "location_lat": 19.411272, "addressnumber": "S/N", "districtname": "Ampliaci\u00f3n Granada", "id": 70, "nearbystations_2": 76, "nearbystations_1": 71, "location_lon": -99.169718, "punto_geo": [19.411272, -99.169718], "address": "070 - Parque M\u00e9xico - Michoacan"}},{"type": "Feature", "geometry": {"type": "Point", "coordinates": [-99.1696894, 19.3881779]}, "properties": {"districtcode": "1", "nearbystations_0": 316, "name": "325 PROVIDENCIA -AVENIDA DEL VALLE", "stationtype": "BIKE", "zipcode": "3100", "location_lat": 19.3881779, "addressnumber": "S/N", "districtname": "Ampliaci\u00f3n Granada", "id": 325, "nearbystations_2": 336, "nearbystations_1": 335, "location_lon": -99.1696894, "punto_geo": [19.3881779, -99.1696894], "address": "325 - Providencia -Avenida Del Valle"}},{"type": "Feature", "geometry": {"type": "Point", "coordinates": [-99.17702, 19.427575]}, "properties": {"districtcode": "2", "nearbystations_0": 249, "name": "252 VICTOR HUGO-SHAKESPEARE", "stationtype": "BIKE", "zipcode": "11510", "location_lat": 19.427575, "addressnumber": "S/N", "districtname": "Anzures", "id": 252, "nearbystations_2": 253, "nearbystations_1": 251, "location_lon": -99.17702, "punto_geo": [19.427575, -99.17702], "address": "252 - V\u00edctor Hugo-Shakespeare"}},{"type": "Feature", "geometry": {"type": "Point", "coordinates": [-99.171695, 19.431386]}, "properties": {"districtcode": "CUA", "nearbystations_0": 1, "name": "2 RIO GUADALQUIVIR-RIO BALSAS", "districtname": "Cuauht\u00e9moc", "zipcode": "06500", "location_lat": 19.431386, "addressnumber": "S/N", "stationtype": "BIKE", "id": 2, "nearbystations_1": 5, "location_lon": -99.171695, "punto_geo": [19.431386, -99.171695], "address": "002 - R\u00edo Guadalquivir - R\u00edo Balsas"}},{"type": "Feature", "geometry": {"type": "Point", "coordinates": [-99.171592, 19.372437]}, "properties": {"districtcode": "DVS", "nearbystations_0": 393, "name": "394 DR. ROBERTO GAYOL-FELIX CUEVAS", "stationtype": "BIKE", "zipcode": "3104", "location_lat": 19.372437, "addressnumber": "S/N", "districtname": "Del Valle Sur", "id": 394, "nearbystations_2": 396, "nearbystations_1": 395, "location_lon": -99.171592, "punto_geo": [19.372437, -99.171592], "address": "394 - Dr. Roberto Gayol-Felix Cuevas"}},{"type": "Feature", "geometry": {"type": "Point", "coordinates": [-99.184342, 19.404029]}, "properties": {"districtcode": "ESC", "nearbystations_0": 166, "name": "170 OBSERVATORIO ORIENTE-REVOLUCI\u00d3N", "districtname": "Escand\u00f3n", "location_lat": 19.404029, "addressnumber": "S/N", "stationtype": "BIKE", "id": 170, "nearbystations_2": 172, "nearbystations_1": 167, "location_lon": -99.184342, "punto_geo": [19.404029, -99.184342], "address": "170 - Observatorio Oriente-Revoluci\u00f3n"}},{"type": "Feature", "geometry": {"type": "Point", "coordinates": [-99.181692, 19.408841]}, "properties": {"districtcode": "H-C", "nearbystations_0": 176, "name": "177 BENJAMIN HILL-CARLOS ZETINA", "districtname": "Hip\u00f3dromo Condesa", "location_lat": 19.408841, "addressnumber": "S/N", "stationtype": "BIKE", "id": 177, "nearbystations_2": 190, "nearbystations_1": 178, "location_lon": -99.181692, "punto_geo": [19.408841, -99.181692], "address": "177 - BENJAMIN HILL-CARLOS ZETINA"}},{"type": "Feature", "geometry": {"type": "Point", "coordinates": [-99.172118, 19.407307]}, "properties": {"districtcode": "HIP", "nearbystations_0": 79, "name": "80 NUEVO LEON-AGUASCALIENTES", "stationtype": "BIKE", "zipcode": "06100", "location_lat": 19.407307, "addressnumber": "S/N", "districtname": "Hip\u00f3dromo", "id": 80, "nearbystations_2": 84, "nearbystations_1": 83, "location_lon": -99.172118, "punto_geo": [19.407307, -99.172118], "address": "080 - Nuevo Le\u00f3n - Aguascalientes"}},{"type": "Feature", "geometry": {"type": "Point", "coordinates": [-99.185583, 19.375873]}, "properties": {"districtcode": "INM", "nearbystations_0": 385, "name": "384 EMPRESA-POUSSIN", "stationtype": "BIKE", "zipcode": "3920", "location_lat": 19.375873, "addressnumber": "S/N", "districtname": "Insurgentes Mixcoac", "id": 384, "nearbystations_2": 417, "nearbystations_1": 386, "location_lon": -99.185583, "punto_geo": [19.375873, -99.185583], "address": "384 - Empresa-Poussin"}},{"type": "Feature", "geometry": {"type": "Point", "coordinates": [-99.185846, 19.37484]}, "properties": {"districtcode": "INM", "nearbystations_0": 384, "name": "386 POUSSIN-DONATELLO", "stationtype": "BIKE", "zipcode": "3920", "location_lat": 19.37484, "addressnumber": "S/N", "districtname": "Insurgentes Mixcoac", "id": 386, "nearbystations_2": 417, "nearbystations_1": 385, "location_lon": -99.185846, "punto_geo": [19.37484, -99.185846], "address": "386 - Poussin-Donatello"}},{"type": "Feature", "geometry": {"type": "Point", "coordinates": [-99.172575, 19.424375]}, "properties": {"districtcode": "JUA", "nearbystations_0": 14, "name": "22 REFORMA-MANCHESTER", "id": 22, "stationtype": "BIKE,TPV", "zipcode": "06500", "location_lat": 19.424375, "addressnumber": "S/N", "districtname": "Ju\u00e1rez", "nearbystations_3": 28, "nearbystations_2": 23, "nearbystations_1": 15, "location_lon": -99.172575, "punto_geo": [19.424375, -99.172575], "address": "022 - Reforma - Manchester"}},{"type": "Feature", "geometry": {"type": "Point", "coordinates": [-99.15936, 19.391323]}, "properties": {"districtcode": "NAR", "nearbystations_0": 296, "name": "320 ENRIQUE R\u00c9BSAMEN-LUZ SAVI\u00d1ON", "stationtype": "BIKE", "zipcode": "3020", "location_lat": 19.391323, "addressnumber": "S/N", "districtname": "Narvarte Poniente", "id": 320, "nearbystations_2": 319, "nearbystations_1": 297, "location_lon": -99.15936, "punto_geo": [19.391323, -99.15936], "address": "320 - Enrique R\u00e9bsamen-Luz Savi\u00f1on"}},{"type": "Feature", "geometry": {"type": "Point", "coordinates": [-99.158188, 19.385571]}, "properties": {"districtcode": "NAR", "nearbystations_0": 339, "name": "340 ANAX\u00c1GORAS-AVENIDA EUGENIA", "stationtype": "BIKE,TPV", "zipcode": "3020", "location_lat": 19.385571, "addressnumber": "S/N", "districtname": "Narvarte Poniente", "id": 340, "nearbystations_2": 343, "nearbystations_1": 341, "location_lon": -99.158188, "punto_geo": [19.385571, -99.158188], "address": "340 - Anax\u00e1goras-Avenida Eugenia"}},{"type": "Feature", "geometry": {"type": "Point", "coordinates": [-99.2063, 19.43855]}, "properties": {"districtcode": "POL", "nearbystations_0": 198, "name": "240 EJERCITO NACIONAL-F.C. DE CUERNAVACA", "districtname": "Polanco", "location_lat": 19.43855, "addressnumber": "S/N", "stationtype": "BIKE,TPV", "id": 240, "nearbystations_1": 241, "location_lon": -99.2063, "punto_geo": [19.43855, -99.2063], "address": "204- Ejercito Nacional-F.C. de Cuernavaca"}},{"type": "Feature", "geometry": {"type": "Point", "coordinates": [-99.201419, 19.435798]}, "properties": {"districtcode": "POL", "nearbystations_0": 202, "name": "206 MOLIERE-HOMERO", "districtname": "Polanco", "location_lat": 19.435798, "addressnumber": "S/N", "stationtype": "BIKE,TPV", "id": 206, "nearbystations_2": 215, "nearbystations_1": 214, "location_lon": -99.201419, "punto_geo": [19.435798, -99.201419], "address": "206 - Moliere-Homero"}},{"type": "Feature", "geometry": {"type": "Point", "coordinates": [-99.201565, 19.431799]}, "properties": {"districtcode": "POL", "nearbystations_0": 215, "name": "221 EMILIO CASTELAR-PRESIDENTE MASARYK", "stationtype": "BIKE,TPV", "zipcode": "11510", "location_lat": 19.431799, "addressnumber": "S/N", "districtname": "Polanco", "id": 221, "nearbystations_2": 231, "nearbystations_1": 230, "location_lon": -99.201565, "punto_geo": [19.431799, -99.201565], "address": "221 - Emilio Castelar-Presidente Masaryk"}},{"type": "Feature", "geometry": {"type": "Point", "coordinates": [-99.156626, 19.370619]}, "properties": {"districtcode": "PON", "nearbystations_0": 402, "name": "405 DIVISI\u00d3N DEL NORTE-MUNICIPIO LIBRE", "stationtype": "BIKE", "zipcode": "3303", "location_lat": 19.370619, "addressnumber": "S/N", "districtname": "Portales Norte", "id": 405, "nearbystations_2": 404, "nearbystations_1": 403, "location_lon": -99.156626, "punto_geo": [19.370619, -99.156626], "address": "405 - Divisi\u00f3n Del Norte-Municipio Libre"}},{"type": "Feature", "geometry": {"type": "Point", "coordinates": [-99.161314, 19.419579]}, "properties": {"districtcode": "R-N", "nearbystations_0": 129, "name": "131 COLIMA-JALAPA", "districtname": "Roma Norte", "location_lat": 19.419579, "addressnumber": "S/N", "stationtype": "BIKE", "id": 131, "nearbystations_1": 134, "location_lon": -99.161314, "punto_geo": [19.419579, -99.161314], "address": "131 - Colima-Jalapa"}},{"type": "Feature", "geometry": {"type": "Point", "coordinates": [-99.15956, 19.418304]}, "properties": {"districtcode": "R-N", "nearbystations_0": 131, "name": "134 \u00c1LVARO OBREG\u00d3N-ORIZABA", "districtname": "Roma Norte", "location_lat": 19.418304, "addressnumber": "S/N", "stationtype": "BIKE,TPV", "id": 134, "nearbystations_2": 137, "nearbystations_1": 136, "location_lon": -99.15956, "punto_geo": [19.418304, -99.15956], "address": "134 - \u00c1lvaro Obreg\u00f3n-Orizaba"}},{"type": "Feature", "geometry": {"type": "Point", "coordinates": [-99.165141, 19.407468]}, "properties": {"districtcode": "ROM", "nearbystations_0": 154, "name": "153 MANZANILLO-TLAXCALA", "districtname": "Roma Sur", "location_lat": 19.407468, "addressnumber": "S/N", "stationtype": "BIKE", "id": 153, "nearbystations_2": 161, "nearbystations_1": 157, "location_lon": -99.165141, "punto_geo": [19.407468, -99.165141], "address": "153 - Manzanillo-Tlaxcala"}},{"type": "Feature", "geometry": {"type": "Point", "coordinates": [-99.162993, 19.365023]}, "properties": {"districtcode": "SCA", "nearbystations_0": 411, "name": "427 AVENIDA M\u00c9XICO-COYOACAN-AV. POPOCATEPETL (EJE", "stationtype": "BIKE", "zipcode": "3310", "location_lat": 19.365023, "addressnumber": "S/N", "districtname": "Santa Cruz Atoyac", "id": 427, "nearbystations_2": 426, "nearbystations_1": 412, "location_lon": -99.162993, "punto_geo": [19.365023, -99.162993], "address": "427 - Avenida M\u00e9xico-Coyoacan-Av. Popocatepetl (Eje"}},{"type": "Feature", "geometry": {"type": "Point", "coordinates": [-99.18798, 19.41004]}, "properties": {"districtcode": "SMC", "nearbystations_0": 186, "name": "189 GDOR RAFAEL REBOLLAR-GDOR JOS\u00c9 CEBALLOS", "districtname": "San Miguel Chapultepec", "location_lat": 19.41004, "addressnumber": "S/N", "stationtype": "BIKE", "id": 189, "nearbystations_2": 188, "nearbystations_1": 187, "location_lon": -99.18798, "punto_geo": [19.41004, -99.18798], "address": "189 - Gobernador Rafael Rebollar-Gobernador Jos\u00e9 Ceballos"}},{"type": "Feature", "geometry": {"type": "Point", "coordinates": [-99.177054, 19.378818]}, "properties": {"districtcode": "TLA", "nearbystations_0": 361, "name": "370 TLACOQUEMECATL-AV. INSURGENTES", "stationtype": "BIKE", "zipcode": "3200", "location_lat": 19.378818, "addressnumber": "S/N", "districtname": "Tlacoquemecatl", "id": 370, "nearbystations_2": 371, "nearbystations_1": 369, "location_lon": -99.177054, "punto_geo": [19.378818, -99.177054], "address": "370 - Tlacoquemecatl-Av. Insurgentes"}},{"type": "Feature", "geometry": {"type": "Point", "coordinates": [-99.166017, 19.365519]}, "properties": {"districtcode": "XOC", "nearbystations_0": 411, "name": "426 CERRADA DE POPOCATEPETL-AV. POPOCATEPETL (EJE", "stationtype": "BIKE", "zipcode": "3330", "location_lat": 19.365519, "addressnumber": "S/N", "districtname": "Xoco", "id": 426, "nearbystations_2": 425, "nearbystations_1": 412, "location_lon": -99.166017, "punto_geo": [19.365519, -99.166017], "address": "426 - Cerrada De Popocatepetl-Av. Popocatepetl (Eje"}},{"type": "Feature", "geometry": {"type": "Point", "coordinates": [-99.156101, 19.3586]}, "properties": {"districtcode": "GPM", "nearbystations_0": 431, "name": "446 RIFF-AVENIDA RIO CHURUBUSCO", "districtname": "General Pedro Maria Anaya", "zipcode": "3340", "location_lat": 19.3586, "addressnumber": "S/N", "stationtype": "BIKE,TPV", "id": 446, "nearbystations_1": 444, "location_lon": -99.156101, "punto_geo": [19.3586, -99.156101], "address": "446 - Riff-Avenida Rio Churubusco"}},{"type": "Feature", "geometry": {"type": "Point", "coordinates": [-99.173291, 19.38205]}, "properties": {"districtcode": "ISB", "nearbystations_0": 345, "name": "355 CALIFORNIA-SACRAMENTO", "districtname": "Insurgentes San Borja", "zipcode": "3100", "location_lat": 19.38205, "addressnumber": "S/N", "stationtype": "BIKE", "id": 355, "nearbystations_1": 361, "location_lon": -99.173291, "punto_geo": [19.38205, -99.173291], "address": "355 - California-Sacramento"}},{"type": "Feature", "geometry": {"type": "Point", "coordinates": [-99.176776, 19.418858]}, "properties": {"districtcode": "JUA", "nearbystations_0": 447, "name": "447 AGUST\u00cdN MELGAR-ZAMORA", "districtname": "Ju\u00e1rez", "location_lat": 19.418858, "addressnumber": "S/N", "stationtype": "BIKE", "id": 447, "location_lon": -99.176776, "punto_geo": [19.418858, -99.176776], "address": "447 AGUST\u00cdN MELGAR-ZAMORA"}},{"type": "Feature", "geometry": {"type": "Point", "coordinates": [-99.1587223, 19.3709452]}, "properties": {"districtcode": "1", "nearbystations_0": 401, "name": "402 UXMAL-MUNICIPIO LIBRE", "stationtype": "BIKE,TPV", "zipcode": "3310", "location_lat": 19.3709452, "addressnumber": "S/N", "districtname": "Ampliaci\u00f3n Granada", "id": 402, "nearbystations_2": 405, "nearbystations_1": 403, "location_lon": -99.1587223, "punto_geo": [19.3709452, -99.1587223], "address": "402 - Uxmal-Municipio Libre"}},{"type": "Feature", "geometry": {"type": "Point", "coordinates": [-99.199838, 19.442421]}, "properties": {"districtcode": "AMG", "nearbystations_0": 241, "name": "E464 MATEO ALEM\u00c1N-PROLONGACI\u00d3N MOLIERE", "id": 464, "districtname": "Ampliaci\u00f3n Granada", "location_lat": 19.442421, "addressnumber": "S/N", "stationtype": "ELECTRIC_BIKE", "nearbystations_3": 467, "nearbystations_2": 463, "nearbystations_1": 242, "location_lon": -99.199838, "punto_geo": [19.442421, -99.199838], "address": "464 MATEO ALEM\u00c1N-PROLONGACI\u00d3N MOLIERE"}},{"type": "Feature", "geometry": {"type": "Point", "coordinates": [-99.171531, 19.413681]}, "properties": {"districtcode": "1", "nearbystations_0": 70, "name": "63 NUEVO LEON- LAREDO", "stationtype": "BIKE,TPV", "zipcode": "06100", "location_lat": 19.413681, "addressnumber": "S/N", "districtname": "Ampliaci\u00f3n Granada", "id": 63, "nearbystations_2": 77, "nearbystations_1": 76, "location_lon": -99.171531, "punto_geo": [19.413681, -99.171531], "address": "063 - Nuevo Le\u00f3n - Laredo"}},{"type": "Feature", "geometry": {"type": "Point", "coordinates": [-99.19083, 19.44269]}, "properties": {"districtcode": "ANH", "nearbystations_0": 243, "name": "466  LAGO ONEGA-LAGO LADOGA", "districtname": "An\u00e1huac Dos Lagos", "location_lat": 19.44269, "addressnumber": "S/N", "stationtype": "BIKE", "id": 466, "nearbystations_2": 465, "nearbystations_1": 244, "location_lon": -99.19083, "punto_geo": [19.44269, -99.19083], "address": "466  LAGO ONEGA-LAGO LADOGA"}},{"type": "Feature", "geometry": {"type": "Point", "coordinates": [-99.164292, 19.409965]}, "properties": {"districtcode": "1", "nearbystations_0": 146, "name": "150 CAMPECHE-MEDELL\u00cdN", "districtname": "Ampliaci\u00f3n Granada", "location_lat": 19.409965, "addressnumber": "S/N", "stationtype": "BIKE", "id": 150, "nearbystations_2": 152, "nearbystations_1": 151, "location_lon": -99.164292, "punto_geo": [19.409965, -99.164292], "address": "150 - Campeche-Medell\u00edn"}},{"type": "Feature", "geometry": {"type": "Point", "coordinates": [-99.190733, 19.425907]}, "properties": {"districtcode": "CHA", "nearbystations_0": 192, "name": "193 RUBEN DARIO-REFORMA", "stationtype": "BIKE", "zipcode": "11510", "location_lat": 19.425907, "addressnumber": "S/N", "districtname": "Bosque de Chapultepec", "id": 193, "nearbystations_2": 238, "nearbystations_1": 234, "location_lon": -99.190733, "punto_geo": [19.425907, -99.190733], "address": "193 - Rub\u00e9n Dar\u00edo.Reforma"}},{"type": "Feature", "geometry": {"type": "Point", "coordinates": [-99.152187, 19.444031]}, "properties": {"districtcode": "BUE", "nearbystations_0": 267, "name": "266 AV. JES\u00daS GARCIA-CARLOS J. MENESES", "districtname": "Buenavista", "location_lat": 19.444031, "addressnumber": "S/N", "stationtype": "BIKE,TPV", "id": 266, "nearbystations_2": 269, "nearbystations_1": 268, "location_lon": -99.152187, "punto_geo": [19.444031, -99.152187], "address": "266 - Av. Jes\u00fas Garcia -  Carlos J. Meneses"}},{"type": "Feature", "geometry": {"type": "Point", "coordinates": [-99.169946, 19.397651]}, "properties": {"districtcode": "DVN", "nearbystations_0": 283, "name": "291 MAGDALENA-DIVISI\u00d3N DEL NORTE", "stationtype": "BIKE", "zipcode": "3103", "location_lat": 19.397651, "addressnumber": "S/N", "districtname": "Del Valle Norte", "id": 291, "nearbystations_2": 290, "nearbystations_1": 284, "location_lon": -99.169946, "punto_geo": [19.397651, -99.169946], "address": "291 - Magdalena-Divisi\u00f3n Del Norte"}},{"type": "Feature", "geometry": {"type": "Point", "coordinates": [-99.171906, 19.369782]}, "properties": {"districtcode": "DVS", "nearbystations_0": 396, "name": "413 PARROQUIA-AVENIDA COYOAC\u00c1N", "stationtype": "BIKE", "zipcode": "3104", "location_lat": 19.369782, "addressnumber": "S/N", "districtname": "Del Valle Sur", "id": 413, "nearbystations_2": 424, "nearbystations_1": 414, "location_lon": -99.171906, "punto_geo": [19.369782, -99.171906], "address": "413 - Parroquia-Avenida Coyoac\u00e1n"}},{"type": "Feature", "geometry": {"type": "Point", "coordinates": [-99.164127, 19.392249]}, "properties": {"districtcode": "DVN", "nearbystations_0": 299, "name": "318 LUZ SAVI\u00d1\u00d3N-AMORES", "stationtype": "BIKE", "zipcode": "3103", "location_lat": 19.392249, "addressnumber": "S/N", "districtname": "Del Valle Norte", "id": 318, "nearbystations_2": 319, "nearbystations_1": 317, "location_lon": -99.164127, "punto_geo": [19.392249, -99.164127], "address": "318 - Luz Savi\u00f1\u00f3n-Amores"}},{"type": "Feature", "geometry": {"type": "Point", "coordinates": [-99.160548, 19.386032]}, "properties": {"districtcode": "NAR", "nearbystations_0": 322, "name": "339 ENRIQUE R\u00c9BSAMEN-AVENIDA EUGENIA", "stationtype": "BIKE", "zipcode": "3020", "location_lat": 19.386032, "addressnumber": "S/N", "districtname": "Narvarte Poniente", "id": 339, "nearbystations_2": 343, "nearbystations_1": 340, "location_lon": -99.160548, "punto_geo": [19.386032, -99.160548], "address": "339 - Enrique R\u00e9bsamen-Avenida Eugenia"}},{"type": "Feature", "geometry": {"type": "Point", "coordinates": [-99.157308, 19.398532]}, "properties": {"districtcode": "NAR", "nearbystations_0": 276, "name": "281 PIT\u00c1GORAS-LA MORENA", "stationtype": "BIKE", "zipcode": "3020", "location_lat": 19.398532, "addressnumber": "S/N", "districtname": "Narvarte Poniente", "id": 281, "nearbystations_2": 295, "nearbystations_1": 280, "location_lon": -99.157308, "punto_geo": [19.398532, -99.157308], "address": "281 - Pit\u00e1goras-La Morena"}},{"type": "Feature", "geometry": {"type": "Point", "coordinates": [-99.1736, 19.391472]}, "properties": {"districtcode": "NAP", "nearbystations_0": 301, "name": "315 ALABAMA-MONTANA", "stationtype": "BIKE", "zipcode": "3810", "location_lat": 19.391472, "addressnumber": "S/N", "districtname": "N\u00e1poles", "id": 315, "nearbystations_2": 316, "nearbystations_1": 302, "location_lon": -99.1736, "punto_geo": [19.391472, -99.1736], "address": "315 - Alabama-Montana"}},{"type": "Feature", "geometry": {"type": "Point", "coordinates": [-99.20243, 19.42944]}, "properties": {"districtcode": "POL", "nearbystations_0": 229, "name": "236 CAMPOS ELISEOS-MOLIERE", "districtname": "Polanco", "location_lat": 19.42944, "addressnumber": "S/N", "stationtype": "BIKE", "id": 236, "nearbystations_2": 235, "nearbystations_1": 230, "location_lon": -99.20243, "punto_geo": [19.42944, -99.20243], "address": "236 - Campos Eliseos-Moliere"}},{"type": "Feature", "geometry": {"type": "Point", "coordinates": [-99.159698, 19.429947]}, "properties": {"districtcode": "JUA", "nearbystations_0": 116, "name": "115 ROMA-DINAMARCA", "stationtype": "BIKE", "zipcode": "06500", "location_lat": 19.429947, "addressnumber": "S/N", "districtname": "Ju\u00e1rez", "id": 115, "nearbystations_2": 118, "nearbystations_1": 117, "location_lon": -99.159698, "punto_geo": [19.429947, -99.159698], "address": "115 - Roma-Dinamarca"}},{"type": "Feature", "geometry": {"type": "Point", "coordinates": [-99.158251, 19.427114]}, "properties": {"districtcode": "JUA", "nearbystations_0": 116, "name": "118 LIVERPOOL-DINAMARCA", "districtname": "Ju\u00e1rez", "zipcode": "06500", "location_lat": 19.427114, "addressnumber": "S/N", "stationtype": "BIKE", "id": 118, "nearbystations_1": 117, "location_lon": -99.158251, "punto_geo": [19.427114, -99.158251], "address": "118 - Liverpool-Dinamarca"}},{"type": "Feature", "geometry": {"type": "Point", "coordinates": [-99.15554, 19.42679]}, "properties": {"districtcode": "JUA", "nearbystations_0": 114, "name": "119 TUR\u00cdN-ABRAHAM GONZ\u00c1LEZ", "districtname": "Ju\u00e1rez", "location_lat": 19.42679, "addressnumber": "S/N", "stationtype": "BIKE", "id": 119, "nearbystations_2": 125, "nearbystations_1": 118, "location_lon": -99.15554, "punto_geo": [19.42679, -99.15554], "address": "119 - Tur\u00edn-Abraham Gonz\u00e1lez"}},{"type": "Feature", "geometry": {"type": "Point", "coordinates": [-99.154726, 19.432685]}, "properties": {"districtcode": "JUA", "nearbystations_0": 10, "name": "26 REFORMA-VERSALLES", "stationtype": "BIKE,TPV", "zipcode": "06500", "location_lat": 19.432685, "addressnumber": "S/N", "districtname": "Ju\u00e1rez", "id": 26, "location_lon": -99.154726, "punto_geo": [19.432685, -99.154726], "address": "026 - Reforma - Versalles"}},{"type": "Feature", "geometry": {"type": "Point", "coordinates": [-99.156204, 19.424541]}, "properties": {"districtcode": "R-N", "nearbystations_0": 119, "name": "125 MORELIA-CIRCULAR DE MORELIA", "stationtype": "BIKE", "zipcode": "06500", "location_lat": 19.424541, "addressnumber": "S/N", "districtname": "Roma Norte", "id": 125, "nearbystations_2": 127, "nearbystations_1": 123, "location_lon": -99.156204, "punto_geo": [19.424541, -99.156204], "address": "125 - Morelia-Circular de Morelia"}},{"type": "Feature", "geometry": {"type": "Point", "coordinates": [-99.160661, 19.41286]}, "properties": {"districtcode": "R-N", "nearbystations_0": 142, "name": "145 EJE 2 SUR YUCAT\u00c1N-CHIAPAS", "districtname": "Roma Norte", "location_lat": 19.41286, "addressnumber": "S/N", "stationtype": "BIKE", "id": 145, "nearbystations_2": 151, "nearbystations_1": 147, "location_lon": -99.160661, "punto_geo": [19.41286, -99.160661], "address": "145 - Eje 2 Sur Yucat\u00e1n-Chiapas"}},{"type": "Feature", "geometry": {"type": "Point", "coordinates": [-99.155313, 19.417702]}, "properties": {"districtcode": "R-N", "nearbystations_0": 135, "name": "138 GUANAJUATO-FRONTERA", "districtname": "Roma Norte", "location_lat": 19.417702, "addressnumber": "S/N", "stationtype": "BIKE", "id": 138, "nearbystations_2": 144, "nearbystations_1": 140, "location_lon": -99.155313, "punto_geo": [19.417702, -99.155313], "address": "138 - Guanajuato-Frontera"}},{"type": "Feature", "geometry": {"type": "Point", "coordinates": [-99.165716, 19.410737]}, "properties": {"districtcode": "R-N", "nearbystations_0": 150, "name": "146 COAHUILA-MANZANILLO", "districtname": "Roma Norte", "location_lat": 19.410737, "addressnumber": "S/N", "stationtype": "BIKE", "id": 146, "nearbystations_2": 153, "nearbystations_1": 152, "location_lon": -99.165716, "punto_geo": [19.410737, -99.165716], "address": "146 - Coahuila-Manzanillo"}},{"type": "Feature", "geometry": {"type": "Point", "coordinates": [-99.158015, 19.421576]}, "properties": {"districtcode": "R-N", "nearbystations_0": 127, "name": "130 M\u00c9RIDA-DURANGO", "districtname": "Roma Norte", "location_lat": 19.421576, "addressnumber": "S/N", "stationtype": "BIKE", "id": 130, "nearbystations_2": 133, "nearbystations_1": 132, "location_lon": -99.158015, "punto_geo": [19.421576, -99.158015], "address": "130 - M\u00e9rida-Durango"}},{"type": "Feature", "geometry": {"type": "Point", "coordinates": [-99.189835, 19.434182]}, "properties": {"districtcode": "POL", "nearbystations_0": 211, "name": "208 HESIODO-LAMARTINE", "stationtype": "BIKE", "zipcode": "11510", "location_lat": 19.434182, "addressnumber": "S/N", "districtname": "Polanco", "id": 208, "nearbystations_2": 218, "nearbystations_1": 212, "location_lon": -99.189835, "punto_geo": [19.434182, -99.189835], "address": "208 - Hesiodo-Lamartine"}},{"type": "Feature", "geometry": {"type": "Point", "coordinates": [-99.206359, 19.435478]}, "properties": {"districtcode": "POL", "nearbystations_0": 213, "name": "209 SOLON-HORACIO", "stationtype": "BIKE", "zipcode": "11510", "location_lat": 19.435478, "addressnumber": "S/N", "districtname": "Polanco", "id": 209, "nearbystations_2": 219, "nearbystations_1": 214, "location_lon": -99.206359, "punto_geo": [19.435478, -99.206359], "address": "209 - Sol\u00f3n-Horacio"}},{"type": "Feature", "geometry": {"type": "Point", "coordinates": [-99.191613, 19.431242]}, "properties": {"districtcode": "POL", "nearbystations_0": 222, "name": "223 NEWTON-PRESIDENTE MASARYK", "districtname": "Polanco", "location_lat": 19.431242, "addressnumber": "S/N", "stationtype": "BIKE,TPV", "id": 223, "nearbystations_2": 231, "nearbystations_1": 224, "location_lon": -99.191613, "punto_geo": [19.431242, -99.191613], "address": "223 - Newton-Presidente Masarik"}},{"type": "Feature", "geometry": {"type": "Point", "coordinates": [-99.204236, 19.425905]}, "properties": {"districtcode": "LMV", "nearbystations_0": 453, "name": "E454 MONTES URALES-MONTE PELVOUX", "id": 454, "districtname": "Lomas Virreyes", "location_lat": 19.425905, "nearbystations_5": 459, "addressnumber": "S/N", "stationtype": "ELECTRIC_BIKE", "nearbystations_3": 457, "nearbystations_2": 456, "nearbystations_1": 455, "location_lon": -99.204236, "punto_geo": [19.425905, -99.204236], "address": "454 MONTES URALES-MONTE PELVOUX", "nearbystations_4": 458}},{"type": "Feature", "geometry": {"type": "Point", "coordinates": [-99.158292, 19.363071]}, "properties": {"districtcode": "SCA", "nearbystations_0": 428, "name": "429 PIRINEOS-AV. POPOCATEPETL (EJE 8)", "stationtype": "BIKE", "zipcode": "3310", "location_lat": 19.363071, "addressnumber": "S/N", "districtname": "Santa Cruz Atoyac", "id": 429, "nearbystations_2": 431, "nearbystations_1": 430, "location_lon": -99.158292, "punto_geo": [19.363071, -99.158292], "address": "429 - Pirineos-Av. Popocatepetl (Eje 8)"}},{"type": "Feature", "geometry": {"type": "Point", "coordinates": [-99.162508, 19.43425]}, "properties": {"districtcode": "S-R", "nearbystations_0": 1, "name": "85 ROSAS MORENO-SULLIVAN", "stationtype": "BIKE", "zipcode": "06470", "location_lat": 19.43425, "addressnumber": "S/N", "districtname": "San Rafael", "id": 85, "nearbystations_2": 12, "nearbystations_1": 3, "location_lon": -99.162508, "punto_geo": [19.43425, -99.162508], "address": "085 - Rosas Moreno - Sullivan"}},{"type": "Feature", "geometry": {"type": "Point", "coordinates": [-99.15816, 19.4372]}, "properties": {"districtcode": "S-R", "nearbystations_0": 254, "name": "256 G\u00d3MEZ FAR\u00cdAS-SADI CARNOT", "districtname": "San Rafael", "location_lat": 19.4372, "addressnumber": "S/N", "stationtype": "BIKE", "id": 256, "nearbystations_1": 259, "location_lon": -99.15816, "punto_geo": [19.4372, -99.15816], "address": "256 - G\u00f3mez Far\u00edas Sadi Carnot"}},{"type": "Feature", "geometry": {"type": "Point", "coordinates": [-99.152226, 19.43836]}, "properties": {"districtcode": "TAB", "nearbystations_0": 450, "name": "450 RAMOS ARIZPE-PUENTE DE ALVARADO", "districtname": "Tabacalera", "location_lat": 19.43836, "addressnumber": "S/N", "stationtype": "BIKE", "id": 450, "location_lon": -99.152226, "punto_geo": [19.43836, -99.152226], "address": "450 RAMOS ARIZPE-PUENTE DE ALVARADO"}},{"type": "Feature", "geometry": {"type": "Point", "coordinates": [-99.137421, 19.425311]}, "properties": {"districtcode": "CEN", "nearbystations_0": 104, "name": "109 NEZAHUALCOYOTL-ISABEL LA CATOLICA", "stationtype": "BIKE", "zipcode": "06500", "location_lat": 19.425311, "addressnumber": "S/N", "districtname": "Centro", "id": 109, "nearbystations_2": 106, "nearbystations_1": 105, "location_lon": -99.137421, "punto_geo": [19.425311, -99.137421], "address": "109 - Nezahualc\u00f3yotl-Isabel la Cat\u00f3lica"}},{"type": "Feature", "geometry": {"type": "Point", "coordinates": [-99.175089, 19.386568]}, "properties": {"districtcode": "AMN", "nearbystations_0": 326, "name": "334 NUEVA YORK-AV. INSURGENTES", "stationtype": "BIKE", "zipcode": "3840", "location_lat": 19.386568, "addressnumber": "S/N", "districtname": "Ampliaci\u00f3n N\u00e1poles", "id": 334, "nearbystations_2": 346, "nearbystations_1": 335, "location_lon": -99.175089, "punto_geo": [19.386568, -99.175089], "address": "334 - Nuerva York-Av. Insurgentes"}},{"type": "Feature", "geometry": {"type": "Point", "coordinates": [-99.173504, 19.387003]}, "properties": {"districtcode": "DVC", "nearbystations_0": 326, "name": "335 MAGDALENA-AMEYALCO", "stationtype": "BIKE", "zipcode": "3100", "location_lat": 19.387003, "addressnumber": "S/N", "districtname": "Del Valle Centro", "id": 335, "nearbystations_2": 346, "nearbystations_1": 334, "location_lon": -99.173504, "punto_geo": [19.387003, -99.173504], "address": "335 - Magdalena-Ameyalco"}},{"type": "Feature", "geometry": {"type": "Point", "coordinates": [-99.17711, 19.437667]}, "properties": {"districtcode": "2", "nearbystations_0": 247, "name": "E472 BAH\u00cdA SANTA B\u00c1RBARA-BAH\u00cdA DE BALLENAS", "id": 472, "districtname": "Anzures", "location_lat": 19.437667, "nearbystations_5": 479, "addressnumber": "S/N", "stationtype": "ELECTRIC_BIKE", "nearbystations_3": 473, "nearbystations_2": 471, "nearbystations_1": 469, "location_lon": -99.17711, "punto_geo": [19.437667, -99.17711], "address": "472 BAH\u00cdA SANTA B\u00c1RBARA-BAH\u00cdA DE BALLENAS", "nearbystations_4": 474}},{"type": "Feature", "geometry": {"type": "Point", "coordinates": [-99.180857, 19.385688]}, "properties": {"districtcode": "AMN", "nearbystations_0": 332, "name": "349 AUGUSTO RODIN-AVENIDA SAN ANTONIO", "stationtype": "BIKE", "zipcode": "3840", "location_lat": 19.385688, "addressnumber": "S/N", "districtname": "Ampliaci\u00f3n N\u00e1poles", "id": 349, "nearbystations_2": 350, "nearbystations_1": 348, "location_lon": -99.180857, "punto_geo": [19.385688, -99.180857], "address": "349 - Augusto Rodin-Avenida San Antonio"}},{"type": "Feature", "geometry": {"type": "Point", "coordinates": [-99.181733, 19.395319]}, "properties": {"districtcode": "1", "nearbystations_0": 309, "name": "310 CALLE 1-AV. PATRIOTISMO", "stationtype": "BIKE", "zipcode": "3800", "location_lat": 19.395319, "addressnumber": "S/N", "districtname": "Ampliaci\u00f3n Granada", "id": 310, "nearbystations_2": 312, "nearbystations_1": 311, "location_lon": -99.181733, "punto_geo": [19.395319, -99.181733], "address": "310 - Calle 1-Av. Patriotismo"}},{"type": "Feature", "geometry": {"type": "Point", "coordinates": [-99.176398, 19.401682]}, "properties": {"districtcode": "1", "nearbystations_0": 168, "name": "173 MINER\u00cdA-JOS\u00c9 MART\u00cd", "districtname": "Ampliaci\u00f3n Granada", "location_lat": 19.401682, "addressnumber": "S/N", "stationtype": "BIKE", "id": 173, "nearbystations_2": 171, "nearbystations_1": 169, "location_lon": -99.176398, "punto_geo": [19.401682, -99.176398], "address": "173 - Miner\u00eda-Jose Mart\u00ed"}},{"type": "Feature", "geometry": {"type": "Point", "coordinates": [-99.204316, 19.440077]}, "properties": {"districtcode": "1", "nearbystations_0": 197, "name": "197 MIGUEL DE CERVANTES-FC DE CUERNAVACA", "districtname": "Ampliaci\u00f3n Granada", "location_lat": 19.440077, "addressnumber": "S/N", "stationtype": "BIKE,TPV", "id": 197, "location_lon": -99.204316, "punto_geo": [19.440077, -99.204316], "address": "197 - Miguel de Cervantes Saavedra-Ferrocarril de Cuernavaca"}},{"type": "Feature", "geometry": {"type": "Point", "coordinates": [-99.177123, 19.414191]}, "properties": {"districtcode": "CON", "nearbystations_0": 23, "name": "60 MAZATLAN-FERNANDO MONTES DE OCA", "id": 60, "stationtype": "BIKE", "zipcode": "06140", "location_lat": 19.414191, "addressnumber": "S/N", "districtname": "Condesa", "nearbystations_3": 66, "nearbystations_2": 62, "nearbystations_1": 52, "location_lon": -99.177123, "punto_geo": [19.414191, -99.177123], "address": "060 - Mazatl\u00e1n - Fernando Montes de Oca"}},{"type": "Feature", "geometry": {"type": "Point", "coordinates": [-99.162684, 19.391991]}, "properties": {"districtcode": "DVN", "nearbystations_0": 298, "name": "319 DIAGONAL SAN ANTONIO-LUZ SAVI\u00d1ON", "stationtype": "BIKE", "zipcode": "3103", "location_lat": 19.391991, "addressnumber": "S/N", "districtname": "Del Valle Norte", "id": 319, "nearbystations_2": 320, "nearbystations_1": 318, "location_lon": -99.162684, "punto_geo": [19.391991, -99.162684], "address": "319 - Diagonal San Antonio-Luz Savi\u00f1on"}},{"type": "Feature", "geometry": {"type": "Point", "coordinates": [-99.168333, 19.393268]}, "properties": {"districtcode": "DVN", "nearbystations_0": 296, "name": "E300 PROVIDENCIA -LUZ SAVI\u00d1ON", "stationtype": "ELECTRIC_BIKE", "zipcode": "3103", "location_lat": 19.393268, "addressnumber": "S/N", "districtname": "Del Valle Norte", "id": 300, "nearbystations_2": 302, "nearbystations_1": 301, "location_lon": -99.168333, "punto_geo": [19.393268, -99.168333], "address": "300 - Providencia -Luz Savi\u00f1on"}},{"type": "Feature", "geometry": {"type": "Point", "coordinates": [-99.164176, 19.42888]}, "properties": {"districtcode": "CUA", "nearbystations_0": 17, "name": "18 REFORMA-RIO RHIN", "districtname": "Cuauht\u00e9moc", "zipcode": "06500", "location_lat": 19.42888, "addressnumber": "S/N", "stationtype": "BIKE,TPV", "id": 18, "nearbystations_1": 25, "location_lon": -99.164176, "punto_geo": [19.42888, -99.164176], "address": "018 - Reforma - R\u00edo Rhin"}},{"type": "Feature", "geometry": {"type": "Point", "coordinates": [-99.159425, 19.359384]}, "properties": {"districtcode": "GPM", "nearbystations_0": 431, "name": "444 GENERAL MANUEL RINC\u00d3N-AGUST\u00cdN GUTIERREZ", "stationtype": "BIKE", "zipcode": "3340", "location_lat": 19.359384, "addressnumber": "S/N", "districtname": "General Pedro Maria Anaya", "id": 444, "nearbystations_2": 443, "nearbystations_1": 432, "location_lon": -99.159425, "punto_geo": [19.359384, -99.159425], "address": "444 - General Manuel Rinc\u00f3n-Agust\u00edn Gutierrez"}},{"type": "Feature", "geometry": {"type": "Point", "coordinates": [-99.17602, 19.371498]}, "properties": {"districtcode": "DVS", "nearbystations_0": 391, "name": "415 SAN FRANCISCO-PARROQU\u00cdA", "stationtype": "BIKE", "zipcode": "3104", "location_lat": 19.371498, "addressnumber": "S/N", "districtname": "Del Valle Sur", "id": 415, "nearbystations_2": 416, "nearbystations_1": 414, "location_lon": -99.17602, "punto_geo": [19.371498, -99.17602], "address": "415 - San Francisco-Parroqu\u00eda"}},{"type": "Feature", "geometry": {"type": "Point", "coordinates": [-99.172533, 19.400767]}, "properties": {"districtcode": "ESC", "nearbystations_0": 173, "name": "E175 MUTUALISMO-JOS\u00c9 MART\u00ed", "districtname": "Escand\u00f3n", "location_lat": 19.400767, "addressnumber": "S/N", "stationtype": "ELECTRIC_BIKE", "id": 175, "nearbystations_2": 300, "nearbystations_1": 182, "location_lon": -99.172533, "punto_geo": [19.400767, -99.172533], "address": "175 - Mutualismo-Jos\u00e9 Mart\u00ed"}},{"type": "Feature", "geometry": {"type": "Point", "coordinates": [-99.155699, 19.41199]}, "properties": {"districtcode": "R-N", "nearbystations_0": 143, "name": "149 M\u00c9RIDA-ANTONIO ANZA", "districtname": "Roma Norte", "location_lat": 19.41199, "addressnumber": "S/N", "stationtype": "BIKE", "id": 149, "nearbystations_2": 148, "nearbystations_1": 147, "location_lon": -99.155699, "punto_geo": [19.41199, -99.155699], "address": "149 - M\u00e9rida-Antonio Anza"}},{"type": "Feature", "geometry": {"type": "Point", "coordinates": [-99.158443, 19.412182]}, "properties": {"districtcode": "R-N", "nearbystations_0": 145, "name": "147 COAHUILA-ORIZABA", "districtname": "Roma Norte", "location_lat": 19.412182, "addressnumber": "S/N", "stationtype": "BIKE", "id": 147, "nearbystations_2": 151, "nearbystations_1": 149, "location_lon": -99.158443, "punto_geo": [19.412182, -99.158443], "address": "147 - Coahuila-Orizaba"}},{"type": "Feature", "geometry": {"type": "Point", "coordinates": [-99.160873, 19.410529]}, "properties": {"districtcode": "ROM", "nearbystations_0": 145, "name": "151 CAMPECHE-TONAL\u00c1", "districtname": "Roma Sur", "location_lat": 19.410529, "addressnumber": "S/N", "stationtype": "BIKE", "id": 151, "nearbystations_2": 155, "nearbystations_1": 147, "location_lon": -99.160873, "punto_geo": [19.410529, -99.160873], "address": "151 - Campeche-Tonal\u00e1"}},{"type": "Feature", "geometry": {"type": "Point", "coordinates": [-99.135014, 19.426755]}, "properties": {"districtcode": "CEN", "nearbystations_0": 101, "name": "105 SAN JERONIMO-5 DE FEBRERO", "stationtype": "BIKE", "zipcode": "06500", "location_lat": 19.426755, "addressnumber": "S/N", "districtname": "Centro", "id": 105, "nearbystations_2": 106, "nearbystations_1": 104, "location_lon": -99.135014, "punto_geo": [19.426755, -99.135014], "address": "105 - San Jer\u00f3nimo-5 de Febrero"}},{"type": "Feature", "geometry": {"type": "Point", "coordinates": [-99.13395, 19.43693]}, "properties": {"districtcode": "CEN", "nearbystations_0": 91, "name": "262 REPUBLICA DE CUBA-REPUBLICA DE BRASIL", "districtname": "Centro", "location_lat": 19.43693, "addressnumber": "S/N", "stationtype": "BIKE,TPV", "id": 262, "nearbystations_2": 93, "nearbystations_1": 92, "location_lon": -99.13395, "punto_geo": [19.43693, -99.13395], "address": "262 - Republica de Cuba-Republica de Brasil"}},{"type": "Feature", "geometry": {"type": "Point", "coordinates": [-99.139906, 19.436142]}, "properties": {"districtcode": "CEN", "nearbystations_0": 52, "name": "65 MARCONI-TACUBA", "districtname": "Centro", "zipcode": "06170", "location_lat": 19.436142, "addressnumber": "S/N", "stationtype": "BIKE,TPV", "id": 65, "nearbystations_1": 55, "location_lon": -99.139906, "punto_geo": [19.436142, -99.139906], "address": "065 - Marconi - Tacuba"}},{"type": "Feature", "geometry": {"type": "Point", "coordinates": [-99.181065, 19.439249]}, "properties": {"districtcode": "ANI", "nearbystations_0": 468, "name": "475 LAGO MURITZ-LAGO ALBERTO", "districtname": "An\u00e1huac I", "location_lat": 19.439249, "addressnumber": "S/N", "stationtype": "BIKE", "id": 475, "nearbystations_2": 477, "nearbystations_1": 474, "location_lon": -99.181065, "punto_geo": [19.439249, -99.181065], "address": "475 LAGO MURITZ-LAGO ALBERTO"}},{"type": "Feature", "geometry": {"type": "Point", "coordinates": [-99.132446, 19.431698]}, "properties": {"districtcode": "CEN", "nearbystations_0": 88, "name": "90 JOSE MARIA PINO SUAREZ-CORREGIDORA", "districtname": "Centro", "location_lat": 19.431698, "addressnumber": "S/N", "stationtype": "BIKE,TPV", "id": 90, "nearbystations_1": 89, "location_lon": -99.132446, "punto_geo": [19.431698, -99.132446], "address": "090 - Jos\u00e9 Mar\u00eda Pino Su\u00e1rez - Corregidora"}},{"type": "Feature", "geometry": {"type": "Point", "coordinates": [-99.130918, 19.433766]}, "properties": {"districtcode": "CEN", "nearbystations_0": 94, "name": "94 LIC. VERDAD-MONEDA", "districtname": "Centro", "location_lat": 19.433766, "addressnumber": "S/N", "stationtype": "BIKE", "id": 94, "location_lon": -99.130918, "punto_geo": [19.433766, -99.130918], "address": "94 - Lic. Verdad-Moneda"}},{"type": "Feature", "geometry": {"type": "Point", "coordinates": [-99.156871, 19.396328]}, "properties": {"districtcode": "NAR", "nearbystations_0": 281, "name": "295 ANAX\u00c1GORAS-EJE 4 SUR XOLA", "stationtype": "BIKE,TPV", "zipcode": "3020", "location_lat": 19.396328, "addressnumber": "S/N", "districtname": "Narvarte Poniente", "id": 295, "nearbystations_2": 297, "nearbystations_1": 296, "location_lon": -99.156871, "punto_geo": [19.396328, -99.156871], "address": "295 - Anax\u00e1goras-Eje 4 Sur Xola"}},{"type": "Feature", "geometry": {"type": "Point", "coordinates": [-99.172223, 19.384498]}, "properties": {"districtcode": "ISB", "nearbystations_0": 334, "name": "345 MIRAFLORES-PATRICIO SANZ", "stationtype": "BIKE", "zipcode": "3100", "location_lat": 19.384498, "addressnumber": "S/N", "districtname": "Insurgentes San Borja", "id": 345, "nearbystations_2": 346, "nearbystations_1": 335, "location_lon": -99.172223, "punto_geo": [19.384498, -99.172223], "address": "345 - Miraflores-Patricio Sanz"}},{"type": "Feature", "geometry": {"type": "Point", "coordinates": [-99.154419, 19.430369]}, "properties": {"districtcode": "JUA", "nearbystations_0": 114, "name": "113 GENERAL PRIM-VERSALLES", "stationtype": "BIKE", "zipcode": "06500", "location_lat": 19.430369, "addressnumber": "S/N", "districtname": "Ju\u00e1rez", "id": 113, "nearbystations_2": 119, "nearbystations_1": 116, "location_lon": -99.154419, "punto_geo": [19.430369, -99.154419], "address": "113 - General Prim-Versalles"}},{"type": "Feature", "geometry": {"type": "Point", "coordinates": [-99.177382, 19.407503]}, "properties": {"districtcode": "HIP", "nearbystations_0": 77, "name": "78 BENJAMIN HILL-TAMAULIPAS", "districtname": "Hip\u00f3dromo", "zipcode": "06170", "location_lat": 19.407503, "addressnumber": "S/N", "stationtype": "BIKE,TPV", "id": 78, "nearbystations_1": 82, "location_lon": -99.177382, "punto_geo": [19.407503, -99.177382], "address": "078 - Benjam\u00edn Hill - Tamaulipas"}},{"type": "Feature", "geometry": {"type": "Point", "coordinates": [-99.169732, 19.419214]}, "properties": {"districtcode": "R-N", "nearbystations_0": 42, "name": "46 DURANGO-SALAMANCA", "id": 46, "stationtype": "BIKE", "zipcode": "06700", "location_lat": 19.419214, "addressnumber": "S/N", "districtname": "Roma Norte", "nearbystations_3": 54, "nearbystations_2": 51, "nearbystations_1": 45, "location_lon": -99.169732, "punto_geo": [19.419214, -99.169732], "address": "046 - Durango - Salamanca"}},{"type": "Feature", "geometry": {"type": "Point", "coordinates": [-99.200074, 19.430098]}, "properties": {"districtcode": "POL", "nearbystations_0": 221, "name": "230 EDGAR ALAN POE-DICKENS", "stationtype": "BIKE", "zipcode": "11510", "location_lat": 19.430098, "addressnumber": "S/N", "districtname": "Polanco", "id": 230, "nearbystations_2": 236, "nearbystations_1": 235, "location_lon": -99.200074, "punto_geo": [19.430098, -99.200074], "address": "230 - Edgar Alan Poe-Dickens"}},{"type": "Feature", "geometry": {"type": "Point", "coordinates": [-99.183605, 19.432888]}, "properties": {"districtcode": "POL", "nearbystations_0": 207, "name": "217 EULER-AV. HORACIO", "stationtype": "BIKE,TPV", "zipcode": "11510", "location_lat": 19.432888, "addressnumber": "S/N", "districtname": "Polanco", "id": 217, "nearbystations_2": 226, "nearbystations_1": 225, "location_lon": -99.183605, "punto_geo": [19.432888, -99.183605], "address": "217 - Euler-Horacio"}},{"type": "Feature", "geometry": {"type": "Point", "coordinates": [-99.155099, 19.419225]}, "properties": {"districtcode": "R-N", "nearbystations_0": 132, "name": "135 \u00c1LVARO OBREG\u00d3N-MORELIA", "districtname": "Roma Norte", "location_lat": 19.419225, "addressnumber": "S/N", "stationtype": "BIKE,TPV", "id": 135, "nearbystations_2": 137, "nearbystations_1": 133, "location_lon": -99.155099, "punto_geo": [19.419225, -99.155099], "address": "135 - \u00c1lvaro Obreg\u00f3n-Morelia"}},{"type": "Feature", "geometry": {"type": "Point", "coordinates": [-99.177894, 19.375541]}, "properties": {"districtcode": "TLA", "nearbystations_0": 382, "name": "381 SAN LORENZO-MANZANAS", "stationtype": "BIKE", "zipcode": "3200", "location_lat": 19.375541, "addressnumber": "S/N", "districtname": "Tlacoquemecatl", "id": 381, "nearbystations_2": 389, "nearbystations_1": 387, "location_lon": -99.177894, "punto_geo": [19.375541, -99.177894], "address": "381 - San Lorenzo-Manzanas"}},{"type": "Feature", "geometry": {"type": "Point", "coordinates": [-99.138064, 19.434356]}, "properties": {"districtcode": "1", "nearbystations_0": 65, "name": "55 5 DE MAYO-BOLIVAR", "stationtype": "BIKE,TPV", "zipcode": "06700", "location_lat": 19.434356, "addressnumber": "S/N", "districtname": "Ampliaci\u00f3n Granada", "id": 55, "nearbystations_2": 88, "nearbystations_1": 87, "location_lon": -99.138064, "punto_geo": [19.434356, -99.138064], "address": "055 - 5 de Mayo - Bol\u00edvar"}},{"type": "Feature", "geometry": {"type": "Point", "coordinates": [-99.167125, 19.427501]}, "properties": {"districtcode": "1", "nearbystations_0": 16, "name": "17 REFORMA-RIO TIBER", "stationtype": "BIKE,TPV", "zipcode": "06500", "location_lat": 19.427501, "addressnumber": "S/N", "districtname": "Ampliaci\u00f3n Granada", "id": 17, "nearbystations_2": 25, "nearbystations_1": 18, "location_lon": -99.167125, "punto_geo": [19.427501, -99.167125], "address": "017 - Reforma - Rio Tiber"}},{"type": "Feature", "geometry": {"type": "Point", "coordinates": [-99.16164, 19.44111]}, "properties": {"districtcode": "1", "nearbystations_0": 160, "name": "174 JOAQU\u00cdN GARCIA-IGNACIO MANUEL ALTAMIRANO", "districtname": "Ampliaci\u00f3n Granada", "location_lat": 19.44111, "addressnumber": "S/N", "stationtype": "BIKE,TPV", "id": 174, "nearbystations_2": 254, "nearbystations_1": 183, "location_lon": -99.16164, "punto_geo": [19.44111, -99.16164], "address": "174 - Joaqu\u00edn Garcia-Ignacio Manuel Altamirano"}},{"type": "Feature", "geometry": {"type": "Point", "coordinates": [-99.183575, 19.396333]}, "properties": {"districtcode": "1", "nearbystations_0": 287, "name": "288 11 DE ABRIL-AVENIDA 2", "stationtype": "BIKE", "zipcode": "3800", "location_lat": 19.396333, "addressnumber": "S/N", "districtname": "Ampliaci\u00f3n Granada", "id": 288, "nearbystations_2": 311, "nearbystations_1": 310, "location_lon": -99.183575, "punto_geo": [19.396333, -99.183575], "address": "288 - 11 De Abril-Avenida 2"}},{"type": "Feature", "geometry": {"type": "Point", "coordinates": [-99.173879, 19.435039]}, "properties": {"districtcode": "2", "nearbystations_0": 471, "name": "470 BAH\u00cdA DE LAS PALMAS-BAH\u00cdA DE TODOS LOS SANTOS", "districtname": "Anzures", "location_lat": 19.435039, "addressnumber": "S/N", "stationtype": "BIKE", "id": 470, "nearbystations_1": 473, "location_lon": -99.173879, "punto_geo": [19.435039, -99.173879], "address": "470 BAH\u00cdA DE LAS PALMAS-BAH\u00cdA DE TODOS LOS SANTOS"}},{"type": "Feature", "geometry": {"type": "Point", "coordinates": [-99.172906, 19.365154]}, "properties": {"districtcode": "ACT", "nearbystations_0": 433, "name": "435 RODRIGUEZ SARO-AVENIDA COYOAC\u00c1N", "stationtype": "BIKE", "zipcode": "3230", "location_lat": 19.365154, "addressnumber": "S/N", "districtname": "Actipan", "id": 435, "nearbystations_2": 438, "nearbystations_1": 434, "location_lon": -99.172906, "punto_geo": [19.365154, -99.172906], "address": "435 - Rodriguez Saro-Avenida Coyoac\u00e1n"}},{"type": "Feature", "geometry": {"type": "Point", "coordinates": [-99.176961, 19.440818]}, "properties": {"districtcode": "ANI", "nearbystations_0": 473, "name": "478 LAGUNA DE MAYR\u00c1N-LAGO CHALCO", "districtname": "An\u00e1huac I", "location_lat": 19.440818, "addressnumber": "S/N", "stationtype": "BIKE", "id": 478, "nearbystations_2": 477, "nearbystations_1": 474, "location_lon": -99.176961, "punto_geo": [19.440818, -99.176961], "address": "478 LAGUNA DE MAYR\u00c1N-LAGO CHALCO"}},{"type": "Feature", "geometry": {"type": "Point", "coordinates": [-99.137571, 19.4374]}, "properties": {"districtcode": "CEN", "nearbystations_0": 90, "name": "91 REPUBLICA DE CUBA-ALLENDE", "stationtype": "BIKE", "zipcode": "06500", "location_lat": 19.4374, "addressnumber": "S/N", "districtname": "Centro", "id": 91, "nearbystations_2": 93, "nearbystations_1": 92, "location_lon": -99.137571, "punto_geo": [19.4374, -99.137571], "address": "091 - Republica de Cuba-Allende"}},{"type": "Feature", "geometry": {"type": "Point", "coordinates": [-99.161169, 19.379269]}, "properties": {"districtcode": "DVC", "nearbystations_0": 342, "name": "359 MATIAS ROMERO -PESTALLOZZI", "stationtype": "BIKE,TPV", "zipcode": "3100", "location_lat": 19.379269, "addressnumber": "S/N", "districtname": "Del Valle Centro", "id": 359, "nearbystations_2": 374, "nearbystations_1": 360, "location_lon": -99.161169, "punto_geo": [19.379269, -99.161169], "address": "359 - Matias Romero -Pestallozzi"}},{"type": "Feature", "geometry": {"type": "Point", "coordinates": [-99.166264, 19.396917]}, "properties": {"districtcode": "DVN", "nearbystations_0": 283, "name": "292 ADOLFO PRIETO-EJE 4 SUR XOLA", "stationtype": "BIKE", "zipcode": "3103", "location_lat": 19.396917, "addressnumber": "S/N", "districtname": "Del Valle Norte", "id": 292, "nearbystations_2": 299, "nearbystations_1": 293, "location_lon": -99.166264, "punto_geo": [19.396917, -99.166264], "address": "292 - Adolfo Prieto-Eje 4 Sur Xola"}},{"type": "Feature", "geometry": {"type": "Point", "coordinates": [-99.16375, 19.375394]}, "properties": {"districtcode": "DVS", "nearbystations_0": 373, "name": "377 HERIBERTO FR\u00cdAS-MIGUEL LAURENT", "stationtype": "BIKE", "zipcode": "3104", "location_lat": 19.375394, "addressnumber": "S/N", "districtname": "Del Valle Sur", "id": 377, "nearbystations_2": 400, "nearbystations_1": 376, "location_lon": -99.16375, "punto_geo": [19.375394, -99.16375], "address": "377 - Heriberto Fr\u00edas-Miguel Laurent"}},{"type": "Feature", "geometry": {"type": "Point", "coordinates": [-99.1642743, 19.3726458]}, "properties": {"districtcode": "DVS", "nearbystations_0": 397, "name": "400 SAN LORENZO-HERIBERTO FRIAS", "stationtype": "BIKE", "zipcode": "3104", "location_lat": 19.3726458, "addressnumber": "S/N", "districtname": "Del Valle Sur", "id": 400, "nearbystations_2": 399, "nearbystations_1": 398, "location_lon": -99.1642743, "punto_geo": [19.3726458, -99.1642743], "address": "400 - San Lorenzo-Heriberto Frias"}},{"type": "Feature", "geometry": {"type": "Point", "coordinates": [-99.170819, 19.363558]}, "properties": {"districtcode": "DVS", "nearbystations_0": 434, "name": "433 JOSE MAR\u00cdA OLLOQUI-LOP\u00c9Z COSTILLA", "stationtype": "BIKE", "zipcode": "3104", "location_lat": 19.363558, "addressnumber": "S/N", "districtname": "Del Valle Sur", "id": 433, "nearbystations_2": 439, "nearbystations_1": 435, "location_lon": -99.170819, "punto_geo": [19.363558, -99.170819], "address": "433 - Jose Mar\u00eda Olloqui-Lop\u00e9z Costilla"}},{"type": "Feature", "geometry": {"type": "Point", "coordinates": [-99.170531, 19.367208]}, "properties": {"districtcode": "DVS", "nearbystations_0": 413, "name": "424 AMORES-JOS\u00c9 MAR\u00cdA RICO (EJE 8)", "stationtype": "BIKE", "zipcode": "3104", "location_lat": 19.367208, "addressnumber": "S/N", "districtname": "Del Valle Sur", "id": 424, "nearbystations_2": 435, "nearbystations_1": 425, "location_lon": -99.170531, "punto_geo": [19.367208, -99.170531], "address": "424 - Amores-Jos\u00e9 Mar\u00eda Rico (Eje 8)"}},{"type": "Feature", "geometry": {"type": "Point", "coordinates": [-99.1816002, 19.4034921]}, "properties": {"districtcode": "ESC", "nearbystations_0": 167, "name": "172 GENERAL FRANCISCO MURGUIA-JOSE MART\u00cd", "districtname": "Escand\u00f3n", "location_lat": 19.4034921, "addressnumber": "S/N", "stationtype": "BIKE", "id": 172, "nearbystations_2": 171, "nearbystations_1": 170, "location_lon": -99.1816002, "punto_geo": [19.4034921, -99.1816002], "address": "172 - General Francisco Murguia-Jose Mart\u00ed"}},{"type": "Feature", "geometry": {"type": "Point", "coordinates": [-99.181527, 19.375764]}, "properties": {"districtcode": "EXI", "nearbystations_0": 366, "name": "383 LUIS CARACCI-2DA. LUIS CARACCI", "stationtype": "BIKE", "zipcode": "3740", "location_lat": 19.375764, "addressnumber": "S/N", "districtname": "Extremadura Insurgentes", "id": 383, "nearbystations_2": 387, "nearbystations_1": 382, "location_lon": -99.181527, "punto_geo": [19.375764, -99.181527], "address": "383 - Luis Caracci-2da. Luis Caracci"}},{"type": "Feature", "geometry": {"type": "Point", "coordinates": [-99.180457, 19.406833]}, "properties": {"districtcode": "H-C", "nearbystations_0": 166, "name": "178 TAMAULIPAS-FRANCISCO MURGU\u00cdA", "districtname": "Hip\u00f3dromo Condesa", "location_lat": 19.406833, "addressnumber": "S/N", "stationtype": "BIKE,TPV", "id": 178, "nearbystations_2": 177, "nearbystations_1": 167, "location_lon": -99.180457, "punto_geo": [19.406833, -99.180457], "address": "178 - Tamaulipas-Francisco Murgu\u00eda"}},{"type": "Feature", "geometry": {"type": "Point", "coordinates": [-99.174393, 19.42018]}, "properties": {"districtcode": "JUA", "nearbystations_0": 33, "name": "E449 ACAPULCO-PUEBLA", "id": 449, "districtname": "Ju\u00e1rez", "location_lat": 19.42018, "addressnumber": "S/N", "stationtype": "ELECTRIC_BIKE", "nearbystations_3": 139, "nearbystations_2": 37, "nearbystations_1": 36, "location_lon": -99.174393, "punto_geo": [19.42018, -99.174393], "address": "449 ACAPULCO-PUEBLA"}},{"type": "Feature", "geometry": {"type": "Point", "coordinates": [-99.153618, 19.428989]}, "properties": {"districtcode": "JUA", "nearbystations_0": 113, "name": "114 LUCERNA-ABRAHAM GONZALEZ", "stationtype": "BIKE", "zipcode": "06500", "location_lat": 19.428989, "addressnumber": "S/N", "districtname": "Ju\u00e1rez", "id": 114, "nearbystations_2": 119, "nearbystations_1": 116, "location_lon": -99.153618, "punto_geo": [19.428989, -99.153618], "address": "114 - Lucerna-Abraham Gonz\u00e1lez"}},{"type": "Feature", "geometry": {"type": "Point", "coordinates": [-99.166431, 19.424234]}, "properties": {"districtcode": "JUA", "nearbystations_0": 34, "name": "E33 LONDRES-FLORENCIA", "stationtype": "ELECTRIC_BIKE", "zipcode": "06500", "location_lat": 19.424234, "addressnumber": "S/N", "districtname": "Ju\u00e1rez", "id": 33, "nearbystations_2": 449, "nearbystations_1": 35, "location_lon": -99.166431, "punto_geo": [19.424234, -99.166431], "address": "033 - Londres - Florencia"}},{"type": "Feature", "geometry": {"type": "Point", "coordinates": [-99.172494, 19.423542]}, "properties": {"districtcode": "JUA", "nearbystations_0": 14, "name": "28 TOLEDO-TOKIO", "stationtype": "BIKE", "zipcode": "06500", "location_lat": 19.423542, "addressnumber": "S/N", "districtname": "Ju\u00e1rez", "id": 28, "nearbystations_2": 22, "nearbystations_1": 21, "location_lon": -99.172494, "punto_geo": [19.423542, -99.172494], "address": "028 - Toledo- Tokio"}},{"type": "Feature", "geometry": {"type": "Point", "coordinates": [-99.158756, 19.394283]}, "properties": {"districtcode": "NAR", "nearbystations_0": 295, "name": "E296 DIAGONAL SAN ANTONIO-ENRIQUE R\u00c9BSAMEN", "stationtype": "ELECTRIC_BIKE", "zipcode": "3020", "location_lat": 19.394283, "addressnumber": "S/N", "districtname": "Narvarte Poniente", "id": 296, "nearbystations_2": 300, "nearbystations_1": 297, "location_lon": -99.158756, "punto_geo": [19.394283, -99.158756], "address": "296 - Diagonal San Antonio-Enrique R\u00e9bsamen"}},{"type": "Feature", "geometry": {"type": "Point", "coordinates": [-99.201322, 19.42902]}, "properties": {"districtcode": "POL", "nearbystations_0": 451, "name": "451 CAMPOS EL\u00cdSEOS-GOLDSMITH", "districtname": "Polanco", "location_lat": 19.42902, "addressnumber": "S/N", "stationtype": "BIKE", "id": 451, "location_lon": -99.201322, "punto_geo": [19.42902, -99.201322], "address": "451 CAMPOS EL\u00cdSEOS-GOLDSMITH"}},{"type": "Feature", "geometry": {"type": "Point", "coordinates": [-99.184713, 19.435525]}, "properties": {"districtcode": "POL", "nearbystations_0": 201, "name": "205 TAINE-HOMERO", "stationtype": "BIKE", "zipcode": "11510", "location_lat": 19.435525, "addressnumber": "S/N", "districtname": "Polanco", "id": 205, "nearbystations_2": 217, "nearbystations_1": 207, "location_lon": -99.184713, "punto_geo": [19.435525, -99.184713], "address": "205 - Taine-Homero"}},{"type": "Feature", "geometry": {"type": "Point", "coordinates": [-99.19968, 19.43384]}, "properties": {"districtcode": "POL", "nearbystations_0": 206, "name": "215 EDGAR ALAN POE-HORACIO", "stationtype": "BIKE", "zipcode": "11510", "location_lat": 19.43384, "addressnumber": "S/N", "districtname": "Polanco", "id": 215, "nearbystations_2": 221, "nearbystations_1": 214, "location_lon": -99.19968, "punto_geo": [19.43384, -99.19968], "address": "215 - Edgar Alan Poe-Horacio"}},{"type": "Feature", "geometry": {"type": "Point", "coordinates": [-99.158694, 19.367294]}, "properties": {"districtcode": "REE", "nearbystations_0": 406, "name": "407 PROL. XOCHICALCO-GENERAL EMILIANO ZAPATA", "stationtype": "BIKE", "zipcode": "3320", "location_lat": 19.367294, "addressnumber": "S/N", "districtname": "Residencial Emperadores", "id": 407, "nearbystations_2": 410, "nearbystations_1": 408, "location_lon": -99.158694, "punto_geo": [19.367294, -99.158694], "address": "407 - Prolongaci\u00f3n Xochicalco-General Emiliano Zapat"}},{"type": "Feature", "geometry": {"type": "Point", "coordinates": [-99.165702, 19.416959]}, "properties": {"districtcode": "R-N", "nearbystations_0": 47, "name": "56 ALVARO OBREGON-MEDELLIN", "id": 56, "stationtype": "BIKE", "zipcode": "06700", "location_lat": 19.416959, "addressnumber": "S/N", "districtname": "Roma Norte", "nearbystations_3": 59, "nearbystations_2": 55, "nearbystations_1": 51, "location_lon": -99.165702, "punto_geo": [19.416959, -99.165702], "address": "056 - Alvaro Obreg\u00f3n - Medellin"}},{"type": "Feature", "geometry": {"type": "Point", "coordinates": [-99.174761, 19.418057]}, "properties": {"districtcode": "R-N", "nearbystations_0": 36, "name": "44 DURANGO-VERACRUZ", "id": 44, "stationtype": "BIKE", "zipcode": "06140", "location_lat": 19.418057, "addressnumber": "S/N", "districtname": "Roma Norte", "nearbystations_3": 50, "nearbystations_2": 49, "nearbystations_1": 41, "location_lon": -99.174761, "punto_geo": [19.418057, -99.174761], "address": "044 - Durango - Veracruz"}},{"type": "Feature", "geometry": {"type": "Point", "coordinates": [-99.162729, 19.417715]}, "properties": {"districtcode": "R-N", "nearbystations_0": 136, "name": "136 \u00c1LVARO OBREG\u00d3N-TONAL\u00c1", "districtname": "Roma Norte", "location_lat": 19.417715, "addressnumber": "S/N", "stationtype": "BIKE,TPV", "id": 136, "location_lon": -99.162729, "punto_geo": [19.417715, -99.162729], "address": "136 - Tonal\u00e1-\u00c1lvaro Obreg\u00f3n"}},{"type": "Feature", "geometry": {"type": "Point", "coordinates": [-99.154837, 19.415192]}, "properties": {"districtcode": "R-N", "nearbystations_0": 140, "name": "144 FRONTERA-SAN LUIS POTOS\u00cd", "districtname": "Roma Norte", "location_lat": 19.415192, "addressnumber": "S/N", "stationtype": "BIKE", "id": 144, "nearbystations_2": 148, "nearbystations_1": 143, "location_lon": -99.154837, "punto_geo": [19.415192, -99.154837], "address": "144 - Frontera-San Luis Potos\u00ed"}},{"type": "Feature", "geometry": {"type": "Point", "coordinates": [-99.155373, 19.407517]}, "properties": {"districtcode": "ROM", "nearbystations_0": 155, "name": "159 HUATABAMPO-EJE 1 PTE. AV. CUAUHT\u00c9MOC", "districtname": "Roma Sur", "location_lat": 19.407517, "addressnumber": "S/N", "stationtype": "BIKE", "id": 159, "nearbystations_2": 163, "nearbystations_1": 158, "location_lon": -99.155373, "punto_geo": [19.407517, -99.155373], "address": "159 - Huatabampo-Eje 1 Pte. Av. Cuauht\u00e9moc"}},{"type": "Feature", "geometry": {"type": "Point", "coordinates": [-99.156431, 19.405245999999998]}, "properties": {"districtcode": "ROM", "nearbystations_0": 158, "name": "163 TOLUCA-BAJ\u00cdO", "districtname": "Roma Sur", "location_lat": 19.405245999999998, "addressnumber": "S/N", "stationtype": "BIKE", "id": 163, "nearbystations_2": 165, "nearbystations_1": 159, "location_lon": -99.156431, "punto_geo": [19.405245999999998, -99.156431], "address": "163 - Toluca-Baj\u00edo"}},{"type": "Feature", "geometry": {"type": "Point", "coordinates": [-99.160503, 19.404268]}, "properties": {"districtcode": "ROM", "nearbystations_0": 162, "name": "165 BAJ\u00cdO-EJE 2 PTE. MONTERREY", "districtname": "Roma Sur", "location_lat": 19.404268, "addressnumber": "S/N", "stationtype": "BIKE", "id": 165, "nearbystations_1": 163, "location_lon": -99.160503, "punto_geo": [19.404268, -99.160503], "address": "165 - Baj\u00edo-Eje 2 Pte. Monterrey"}},{"type": "Feature", "geometry": {"type": "Point", "coordinates": [-99.154974, 19.362139]}, "properties": {"districtcode": "SCA", "nearbystations_0": 409, "name": "430 TRIPOLI-AV. POPOCATEPETL (EJE 8)", "stationtype": "BIKE", "zipcode": "3310", "location_lat": 19.362139, "addressnumber": "S/N", "districtname": "Santa Cruz Atoyac", "id": 430, "nearbystations_2": 431, "nearbystations_1": 429, "location_lon": -99.154974, "punto_geo": [19.362139, -99.154974], "address": "430 - Tripoli-Av. Popocatepetl (Eje 8)"}},{"type": "Feature", "geometry": {"type": "Point", "coordinates": [-99.1828, 19.4128]}, "properties": {"districtcode": "SMC", "nearbystations_0": 176, "name": "185 GRAL ANTONIO L\u00c9ON-GRAL PEDRO A DE LOS S.", "districtname": "San Miguel Chapultepec", "location_lat": 19.4128, "addressnumber": "S/N", "stationtype": "BIKE", "id": 185, "nearbystations_2": 190, "nearbystations_1": 187, "location_lon": -99.1828, "punto_geo": [19.4128, -99.1828], "address": "185 - General Antonio L\u00e9on-General Pedro Antonio de los Santos"}},{"type": "Feature", "geometry": {"type": "Point", "coordinates": [-99.184812, 19.390306]}, "properties": {"districtcode": "SPP", "nearbystations_0": 312, "name": "329 CALLE 13-AVENIDA 1", "stationtype": "BIKE", "zipcode": "3800", "location_lat": 19.390306, "addressnumber": "S/N", "districtname": "San Pedro de los Pinos", "id": 329, "nearbystations_2": 330, "nearbystations_1": 328, "location_lon": -99.184812, "punto_geo": [19.390306, -99.184812], "address": "329 - Calle 13-Avenida 1"}},{"type": "Feature", "geometry": {"type": "Point", "coordinates": [-99.165217, 19.441669]}, "properties": {"districtcode": "S-R", "nearbystations_0": 103, "name": "103 JOAQU\u00cdN VEL\u00c1ZQUEZ DE LE\u00d3N-GARC\u00cdA ICAZBALCETA", "districtname": "San Rafael", "location_lat": 19.441669, "addressnumber": "s/n", "stationtype": "BIKE", "id": 103, "location_lon": -99.165217, "punto_geo": [19.441669, -99.165217], "address": "103 JOAQU\u00cdN VEL\u00c1ZQUEZ DE LE\u00d3N-GARC\u00cdA ICAZBALCETA"}},{"type": "Feature", "geometry": {"type": "Point", "coordinates": [-99.15387, 19.43676]}, "properties": {"districtcode": "TAB", "nearbystations_0": 270, "name": "270 DE LA REPUBLICA-PONCIANO ARRIAGA", "districtname": "Tabacalera", "location_lat": 19.43676, "addressnumber": "S/N", "stationtype": "BIKE,TPV", "id": 270, "location_lon": -99.15387, "punto_geo": [19.43676, -99.15387], "address": "270 - De la Republica-Ponciano Arriaga"}},{"type": "Feature", "geometry": {"type": "Point", "coordinates": [-99.17458333, 19.36479722]}, "properties": {"districtcode": "1", "nearbystations_0": 434, "name": "438 ADOLFO PRIETO-JOS\u00c9 MAR\u00cdA OLLOQUI", "stationtype": "BIKE", "zipcode": "3240", "location_lat": 19.36479722, "addressnumber": "S/N", "districtname": "Ampliaci\u00f3n Granada", "id": 438, "nearbystations_2": 437, "nearbystations_1": 435, "location_lon": -99.17458333, "punto_geo": [19.36479722, -99.17458333], "address": "438 - Adolfo Prieto-Jos\u00e9 Mar\u00eda Olloqui"}},{"type": "Feature", "geometry": {"type": "Point", "coordinates": [-99.168242, 19.427226]}, "properties": {"districtcode": "1", "nearbystations_0": 9, "name": "16 REFORMA-R\u00cdO TIBER", "stationtype": "BIKE", "zipcode": "06500", "location_lat": 19.427226, "addressnumber": "S/N", "districtname": "Ampliaci\u00f3n Granada", "id": 16, "nearbystations_2": 24, "nearbystations_1": 23, "location_lon": -99.168242, "punto_geo": [19.427226, -99.168242], "address": "016 - Reforma - Rio Tiber"}},{"type": "Feature", "geometry": {"type": "Point", "coordinates": [-99.17206, 19.42472]}, "properties": {"districtcode": "1", "nearbystations_0": 7, "name": "21 REFORMA-DUBLIN", "id": 21, "stationtype": "BIKE,TPV", "zipcode": "06500", "location_lat": 19.42472, "addressnumber": "S/N", "districtname": "Ampliaci\u00f3n Granada", "nearbystations_3": 28, "nearbystations_2": 14, "nearbystations_1": 13, "location_lon": -99.17206, "punto_geo": [19.42472, -99.17206], "address": "021 - Reforma - Dublin"}},{"type": "Feature", "geometry": {"type": "Point", "coordinates": [-99.1659465, 19.4382369]}, "properties": {"districtcode": "1", "nearbystations_0": 103, "name": "111 GUILLERMO PRIETO-JOAQU\u00cdN VEL\u00c1ZQUEZ DE LE\u00d3N", "districtname": "Ampliaci\u00f3n Granada", "location_lat": 19.4382369, "addressnumber": "S/N", "stationtype": "BIKE", "id": 111, "nearbystations_2": 183, "nearbystations_1": 160, "location_lon": -99.1659465, "punto_geo": [19.4382369, -99.1659465], "address": "111 GUILLERMO PRIETO-JOAQU\u00cdN VEL\u00c1ZQUEZ DE LE\u00d3N"}},{"type": "Feature", "geometry": {"type": "Point", "coordinates": [-99.178199, 19.402584]}, "properties": {"districtcode": "1", "nearbystations_0": 167, "name": "171 COMERCIO-JOSE MART\u00cd", "districtname": "Ampliaci\u00f3n Granada", "location_lat": 19.402584, "addressnumber": "S/N", "stationtype": "BIKE", "id": 171, "nearbystations_2": 173, "nearbystations_1": 168, "location_lon": -99.178199, "punto_geo": [19.402584, -99.178199], "address": "171 - Comercio-Jose Mart\u00ed"}},{"type": "Feature", "geometry": {"type": "Point", "coordinates": [-99.207373, 19.431791]}, "properties": {"districtcode": "1", "nearbystations_0": 213, "name": "227 CAMPOS EL\u00cdSEOS-PERIF\u00c9RICO", "districtname": "Ampliaci\u00f3n Granada", "location_lat": 19.431791, "addressnumber": "S/N", "stationtype": "BIKE", "id": 227, "nearbystations_2": 220, "nearbystations_1": 219, "location_lon": -99.207373, "punto_geo": [19.431791, -99.207373], "address": "227 - Campos El\u00edseos-Perif\u00e9rico"}},{"type": "Feature", "geometry": {"type": "Point", "coordinates": [-99.196712, 19.440839]}, "properties": {"districtcode": "1", "nearbystations_0": 199, "name": "243 MIGUEL DE CERVANTES SAAVEDRA-LAGO FILT", "stationtype": "BIKE", "zipcode": "11510", "location_lat": 19.440839, "addressnumber": "S/N", "districtname": "Ampliaci\u00f3n Granada", "id": 243, "nearbystations_2": 244, "nearbystations_1": 242, "location_lon": -99.196712, "punto_geo": [19.440839, -99.196712], "address": "243 - Miguel de Cervantes Saavedra-Lago Filt"}},{"type": "Feature", "geometry": {"type": "Point", "coordinates": [-99.15468, 19.43757]}, "properties": {"districtcode": "1", "nearbystations_0": 256, "name": "259 T\u00d3MAS ALVA EDISON-PONCIANO ARRIAGA", "districtname": "Ampliaci\u00f3n Granada", "location_lat": 19.43757, "addressnumber": "S/N", "stationtype": "BIKE", "id": 259, "location_lon": -99.15468, "punto_geo": [19.43757, -99.15468], "address": "259 - T\u00f3mas Alva Edison-Ponciano Arriaga"}},{"type": "Feature", "geometry": {"type": "Point", "coordinates": [-99.160616, 19.388528]}, "properties": {"districtcode": "1", "nearbystations_0": 321, "name": "322 HERIBERTO FR\u00cdAS-CONCEPCI\u00d3N BEISTEGUI", "stationtype": "BIKE", "zipcode": "3020", "location_lat": 19.388528, "addressnumber": "S/N", "districtname": "Ampliaci\u00f3n Granada", "id": 322, "nearbystations_2": 339, "nearbystations_1": 323, "location_lon": -99.160616, "punto_geo": [19.388528, -99.160616], "address": "322 - Heriberto Fr\u00edas-Concepci\u00f3n Beistegui"}},{"type": "Feature", "geometry": {"type": "Point", "coordinates": [-99.174888, 19.436287]}, "properties": {"districtcode": "2", "nearbystations_0": 470, "name": "471 BAH\u00cdA DE CHACHALACAS-BAH\u00cdA SANTA B\u00c1RBARA", "districtname": "Anzures", "location_lat": 19.436287, "addressnumber": "S/N", "stationtype": "BIKE", "id": 471, "nearbystations_2": 474, "nearbystations_1": 473, "location_lon": -99.174888, "punto_geo": [19.436287, -99.174888], "address": "471 BAH\u00cdA DE CHACHALACAS-BAH\u00cdA SANTA B\u00c1RBARA"}},{"type": "Feature", "geometry": {"type": "Point", "coordinates": [-99.183851, 19.380813]}, "properties": {"districtcode": "CDD", "nearbystations_0": 362, "name": "363 HOLBEIN-PAULO UCELLO", "stationtype": "BIKE", "zipcode": "3710", "location_lat": 19.380813, "addressnumber": "S/N", "districtname": "Ciudad de los Deportes", "id": 363, "nearbystations_2": 367, "nearbystations_1": 365, "location_lon": -99.183851, "punto_geo": [19.380813, -99.183851], "address": "363 - Holbein-Paulo Ucello"}},{"type": "Feature", "geometry": {"type": "Point", "coordinates": [-99.133989, 19.434946]}, "properties": {"districtcode": "CEN", "nearbystations_0": 88, "name": "89 REPUBLICA DE GUATEMALA-MONTE DE PIEDAD", "districtname": "Centro", "location_lat": 19.434946, "addressnumber": "S/N", "stationtype": "BIKE,TPV", "id": 89, "nearbystations_1": 90, "location_lon": -99.133989, "punto_geo": [19.434946, -99.133989], "address": "089 - Rep\u00fablica de Guatemala - Monte de Piedad"}},{"type": "Feature", "geometry": {"type": "Point", "coordinates": [-99.146063, 19.435228]}, "properties": {"districtcode": "CEN", "nearbystations_0": 52, "name": "43 JUAREZ-REVILLAGIGEDO", "districtname": "Centro", "zipcode": "06700", "location_lat": 19.435228, "addressnumber": "S/N", "stationtype": "BIKE,TPV", "id": 43, "nearbystations_1": 82, "location_lon": -99.146063, "punto_geo": [19.435228, -99.146063], "address": "043 - Revillagigedo - Ju\u00e1rez"}},{"type": "Feature", "geometry": {"type": "Point", "coordinates": [-99.185147, 19.424926]}, "properties": {"districtcode": "CHA", "nearbystations_0": 194, "name": "195 AV. PASEO DE LA REFORMA-CTO MAHATMA GANDHI", "districtname": "Bosque de Chapultepec", "location_lat": 19.424926, "addressnumber": "S/N", "stationtype": "BIKE,TPV", "id": 195, "nearbystations_2": 261, "nearbystations_1": 253, "location_lon": -99.185147, "punto_geo": [19.424926, -99.185147], "address": "195 - Circuito Mahatma Gandhi-Av. Paseo de la Reforma"}},{"type": "Feature", "geometry": {"type": "Point", "coordinates": [-99.175202, 19.413322]}, "properties": {"districtcode": "CON", "nearbystations_0": 67, "name": "62 FERNANDO MONTES DE OCA-AMATLAN", "stationtype": "BIKE", "zipcode": "06140", "location_lat": 19.413322, "addressnumber": "S/N", "districtname": "Condesa", "id": 62, "nearbystations_2": 74, "nearbystations_1": 71, "location_lon": -99.175202, "punto_geo": [19.413322, -99.175202], "address": "062 - Fernando Montes de Oca - Amatlan"}},{"type": "Feature", "geometry": {"type": "Point", "coordinates": [-99.160206, 19.430964]}, "properties": {"districtcode": "CUA", "nearbystations_0": 12, "name": "20 REFORMA-RIO TAMESIS", "stationtype": "BIKE", "zipcode": "06500", "location_lat": 19.430964, "addressnumber": "S/N", "districtname": "Cuauht\u00e9moc", "id": 20, "nearbystations_2": 27, "nearbystations_1": 19, "location_lon": -99.160206, "punto_geo": [19.430964, -99.160206], "address": "020 - Reforma- Rio Tamesis"}},{"type": "Feature", "geometry": {"type": "Point", "coordinates": [-99.169918, 19.428009]}, "properties": {"districtcode": "CUA", "nearbystations_0": 4, "name": "9 RIO GUADALQUIVIR-RIO LERMA", "id": 9, "stationtype": "BIKE", "zipcode": "06500", "location_lat": 19.428009, "addressnumber": "S/N", "districtname": "Cuauht\u00e9moc", "nearbystations_3": 16, "nearbystations_2": 8, "nearbystations_1": 5, "location_lon": -99.169918, "punto_geo": [19.428009, -99.169918], "address": "009 - R\u00edo Guadalquivir - R\u00edo Lerma"}},{"type": "Feature", "geometry": {"type": "Point", "coordinates": [-99.164222, 19.380168]}, "properties": {"districtcode": "DVC", "nearbystations_0": 357, "name": "358 NICOLAS SAN JUAN-MATIAS ROMERO", "stationtype": "BIKE", "zipcode": "3100", "location_lat": 19.380168, "addressnumber": "S/N", "districtname": "Del Valle Centro", "id": 358, "nearbystations_2": 373, "nearbystations_1": 360, "location_lon": -99.164222, "punto_geo": [19.380168, -99.164222], "address": "358 - Nicolas San Juan-Matias Romero"}},{"type": "Feature", "geometry": {"type": "Point", "coordinates": [-99.1712, 19.391056]}, "properties": {"districtcode": "DVN", "nearbystations_0": 301, "name": "316 SAN FRANCISCO-CONCEPCI\u00d3N BEISTEGUI", "stationtype": "BIKE", "zipcode": "3103", "location_lat": 19.391056, "addressnumber": "S/N", "districtname": "Del Valle Norte", "id": 316, "nearbystations_2": 315, "nearbystations_1": 302, "location_lon": -99.1712, "punto_geo": [19.391056, -99.1712], "address": "316 - San Francisco-Concepci\u00f3n Beistegui"}},{"type": "Feature", "geometry": {"type": "Point", "coordinates": [-99.1775178, 19.3997946]}, "properties": {"districtcode": "ESC", "nearbystations_0": 171, "name": "285 12 DE OCTUBRE-MINERIA", "stationtype": "BIKE", "zipcode": "11800", "location_lat": 19.3997946, "addressnumber": "S/N", "districtname": "Escand\u00f3n", "id": 285, "nearbystations_2": 286, "nearbystations_1": 173, "location_lon": -99.1775178, "punto_geo": [19.3997946, -99.1775178], "address": "285 - 12 De Octubre-Mineria"}},{"type": "Feature", "geometry": {"type": "Point", "coordinates": [-99.169913, 19.408736]}, "properties": {"districtcode": "HIP", "nearbystations_0": 70, "name": "76 CHILPANCINGO-CAMPECHE", "stationtype": "BIKE", "zipcode": "06100", "location_lat": 19.408736, "addressnumber": "S/N", "districtname": "Hip\u00f3dromo", "id": 76, "nearbystations_2": 74, "nearbystations_1": 71, "location_lon": -99.169913, "punto_geo": [19.408736, -99.169913], "address": "076 - Chilpancingo - Campeche"}},{"type": "Feature", "geometry": {"type": "Point", "coordinates": [-99.168475, 19.408006]}, "properties": {"districtcode": "HIP", "nearbystations_0": 76, "name": "81 AGUASCALIENTES-INSURGENTES", "districtname": "Hip\u00f3dromo", "zipcode": "06100", "location_lat": 19.408006, "addressnumber": "S/N", "stationtype": "BIKE", "id": 81, "nearbystations_1": 84, "location_lon": -99.168475, "punto_geo": [19.408006, -99.168475], "address": "081 - Aguascalientes - Insurgentes"}},{"type": "Feature", "geometry": {"type": "Point", "coordinates": [-99.169587, 19.40702]}, "properties": {"districtcode": "HIP", "nearbystations_0": 81, "name": "84 CHILPANCINGO-TLAXCALA", "districtname": "Hip\u00f3dromo", "zipcode": "06100", "location_lat": 19.40702, "addressnumber": "S/N", "stationtype": "BIKE", "id": 84, "nearbystations_1": 83, "location_lon": -99.169587, "punto_geo": [19.40702, -99.169587], "address": "084 - Chilpancingo - Tlaxcala"}},{"type": "Feature", "geometry": {"type": "Point", "coordinates": [-99.181502, 19.370606]}, "properties": {"districtcode": "INM", "nearbystations_0": 418, "name": "419 ACTIPAN-CADIZ", "stationtype": "BIKE", "zipcode": "3920", "location_lat": 19.370606, "addressnumber": "S/N", "districtname": "Insurgentes Mixcoac", "id": 419, "nearbystations_2": 421, "nearbystations_1": 420, "location_lon": -99.181502, "punto_geo": [19.370606, -99.181502], "address": "419 - Actipan-Cadiz"}},{"type": "Feature", "geometry": {"type": "Point", "coordinates": [-99.18558, 19.375651]}, "properties": {"districtcode": "INM", "nearbystations_0": 384, "name": "385 POUSSIN-EMPRESA", "stationtype": "BIKE,TPV", "zipcode": "3920", "location_lat": 19.375651, "addressnumber": "S/N", "districtname": "Insurgentes Mixcoac", "id": 385, "nearbystations_2": 417, "nearbystations_1": 386, "location_lon": -99.18558, "punto_geo": [19.375651, -99.18558], "address": "385 - Poussin-Empresa"}},{"type": "Feature", "geometry": {"type": "Point", "coordinates": [-99.17105, 19.42517]}, "properties": {"districtcode": "JUA", "nearbystations_0": 15, "name": "23 REFORMA-PRAGA", "stationtype": "BIKE", "zipcode": "06500", "location_lat": 19.42517, "addressnumber": "S/N", "districtname": "Ju\u00e1rez", "id": 23, "nearbystations_2": 22, "nearbystations_1": 16, "location_lon": -99.17105, "punto_geo": [19.42517, -99.17105], "address": "023 - Reforma - Praga"}},{"type": "Feature", "geometry": {"type": "Point", "coordinates": [-99.158818, 19.376865]}, "properties": {"districtcode": "LEV", "nearbystations_0": 359, "name": "375 TENAYUCA-DIVISI\u00d3N DEL NORTE", "stationtype": "BIKE", "zipcode": "3650", "location_lat": 19.376865, "addressnumber": "S/N", "districtname": "Letran Valle", "id": 375, "nearbystations_2": 376, "nearbystations_1": 374, "location_lon": -99.158818, "punto_geo": [19.376865, -99.158818], "address": "375 - Tenayuca-Divisi\u00f3n Del Norte"}},{"type": "Feature", "geometry": {"type": "Point", "coordinates": [-99.156366, 19.401986]}, "properties": {"districtcode": "NAR", "nearbystations_0": 277, "name": "276 ANAX\u00c1GORAS-OBRERO MUNDIAL", "stationtype": "BIKE", "zipcode": "3020", "location_lat": 19.401986, "addressnumber": "S/N", "districtname": "Narvarte Poniente", "id": 276, "nearbystations_2": 281, "nearbystations_1": 280, "location_lon": -99.156366, "punto_geo": [19.401986, -99.156366], "address": "276 - Anax\u00e1goras-Obrero Mundial"}},{"type": "Feature", "geometry": {"type": "Point", "coordinates": [-99.20758, 19.43862]}, "properties": {"districtcode": "POL", "nearbystations_0": 222, "name": "E241 EJERCITO NAL-JUAN VAZQUEZ DE LA MELLA", "districtname": "Polanco", "location_lat": 19.43862, "addressnumber": "S/N", "stationtype": "ELECTRIC_BIKE", "id": 241, "nearbystations_1": 460, "location_lon": -99.20758, "punto_geo": [19.43862, -99.20758], "address": "241 - Ejercito Nacional-Juan Vazquez de la Mella"}},{"type": "Feature", "geometry": {"type": "Point", "coordinates": [-99.197241, 19.437934]}, "properties": {"districtcode": "POL", "nearbystations_0": 196, "name": "199 ANATOLE FRANCE-AV. EJERCITO NACIONAL", "stationtype": "BIKE", "zipcode": "11510", "location_lat": 19.437934, "addressnumber": "S/N", "districtname": "Polanco", "id": 199, "nearbystations_2": 203, "nearbystations_1": 202, "location_lon": -99.197241, "punto_geo": [19.437934, -99.197241], "address": "199 - Anatole France-Av. Ej\u00e9rcito Nacional"}},{"type": "Feature", "geometry": {"type": "Point", "coordinates": [-99.20322, 19.434353]}, "properties": {"districtcode": "POL", "nearbystations_0": 206, "name": "214 PLAT\u00d3N-HORACIO", "districtname": "Polanco", "location_lat": 19.434353, "addressnumber": "S/N", "stationtype": "BIKE", "id": 214, "nearbystations_2": 215, "nearbystations_1": 209, "location_lon": -99.20322, "punto_geo": [19.434353, -99.20322], "address": "214 - Plat\u00f3n-Horacio"}},{"type": "Feature", "geometry": {"type": "Point", "coordinates": [-99.195746, 19.433419]}, "properties": {"districtcode": "POL", "nearbystations_0": 210, "name": "216 ALEJANDRO DUMAS-HORACIO", "districtname": "Polanco", "zipcode": "11510", "location_lat": 19.433419, "addressnumber": "S/N", "stationtype": "BIKE,TPV", "id": 216, "nearbystations_1": 222, "location_lon": -99.195746, "punto_geo": [19.433419, -99.195746], "address": "216 - Alejandro Dumas-Horacio"}},{"type": "Feature", "geometry": {"type": "Point", "coordinates": [-99.188033, 19.432451]}, "properties": {"districtcode": "POL", "nearbystations_0": 211, "name": "218 HEGEL-IBARBOUROU", "stationtype": "BIKE", "zipcode": "11510", "location_lat": 19.432451, "addressnumber": "S/N", "districtname": "Polanco", "id": 218, "nearbystations_2": 224, "nearbystations_1": 212, "location_lon": -99.188033, "punto_geo": [19.432451, -99.188033], "address": "218 - Hegel-Ibarbourou"}},{"type": "Feature", "geometry": {"type": "Point", "coordinates": [-99.155717, 19.407447]}, "properties": {"districtcode": "ROM", "nearbystations_0": 155, "name": "158 HUATABAMPO-EJE 1PTE. CUAUHT\u00c9MOC", "districtname": "Roma Sur", "location_lat": 19.407447, "addressnumber": "S/N", "stationtype": "BIKE,TPV", "id": 158, "nearbystations_2": 163, "nearbystations_1": 159, "location_lon": -99.155717, "punto_geo": [19.407447, -99.155717], "address": "158 - Huatabampo- Eje 1 Pte. Av. Cuauht\u00e9moc"}},{"type": "Feature", "geometry": {"type": "Point", "coordinates": [-99.16596, 19.403204]}, "properties": {"districtcode": "ROM", "nearbystations_0": 157, "name": "164 BAJ\u00cdO-TLACOTALPAN", "districtname": "Roma Sur", "location_lat": 19.403204, "addressnumber": "S/N", "stationtype": "BIKE", "id": 164, "nearbystations_2": 162, "nearbystations_1": 161, "location_lon": -99.16596, "punto_geo": [19.403204, -99.16596], "address": "164 - Baj\u00edo-Tlacotalpan"}},{"type": "Feature", "geometry": {"type": "Point", "coordinates": [-99.19014, 19.41171]}, "properties": {"districtcode": "SMC", "nearbystations_0": 186, "name": "188 GDOR MELCHOR M\u00daZQUIZ-GDOR IGNACIO ESTEVA", "districtname": "San Miguel Chapultepec", "location_lat": 19.41171, "addressnumber": "S/N", "stationtype": "BIKE,TPV", "id": 188, "nearbystations_2": 189, "nearbystations_1": 187, "location_lon": -99.19014, "punto_geo": [19.41171, -99.19014], "address": "188 - Gobernador Melchor M\u00fazquiz-Gobernador Ignacio Esteva"}},{"type": "Feature", "geometry": {"type": "Point", "coordinates": [-99.185858, 19.383063]}, "properties": {"districtcode": "SMN", "nearbystations_0": 351, "name": "364 BOTICHELLI-CDA. DE GIORGONE", "stationtype": "BIKE", "zipcode": "3700", "location_lat": 19.383063, "addressnumber": "S/N", "districtname": "Santa Mar\u00eda Nonoalco", "id": 364, "nearbystations_2": 365, "nearbystations_1": 352, "location_lon": -99.185858, "punto_geo": [19.383063, -99.185858], "address": "364 - Botichelli-Cda. De Giorgone"}},{"type": "Feature", "geometry": {"type": "Point", "coordinates": [-99.172558, 19.372796]}, "properties": {"districtcode": "TLA", "nearbystations_0": 380, "name": "393 ADOLFO PRIETO-FELIX CUEVAS", "stationtype": "BIKE,TPV", "zipcode": "3200", "location_lat": 19.372796, "addressnumber": "S/N", "districtname": "Tlacoquemecatl", "id": 393, "nearbystations_2": 394, "nearbystations_1": 392, "location_lon": -99.172558, "punto_geo": [19.372796, -99.172558], "address": "393 - Adolfo Prieto-Felix Cuevas"}},{"type": "Feature", "geometry": {"type": "Point", "coordinates": [-99.159077, 19.432378]}, "properties": {"districtcode": "1", "nearbystations_0": 12, "name": "86 SULLIVAN-INSURGENTES", "districtname": "Ampliaci\u00f3n Granada", "zipcode": "06470", "location_lat": 19.432378, "addressnumber": "S/N", "stationtype": "BIKE,TPV", "id": 86, "nearbystations_1": 20, "location_lon": -99.159077, "punto_geo": [19.432378, -99.159077], "address": "086 - Sullivan-Insurgentes"}},{"type": "Feature", "geometry": {"type": "Point", "coordinates": [-99.17966, 19.429057]}, "properties": {"districtcode": "1", "nearbystations_0": 239, "name": "250 DARWIN-MARIANO ESCOBEDO", "stationtype": "BIKE,TPV", "zipcode": "11510", "location_lat": 19.429057, "addressnumber": "S/N", "districtname": "Ampliaci\u00f3n Granada", "id": 250, "nearbystations_2": 252, "nearbystations_1": 249, "location_lon": -99.17966, "punto_geo": [19.429057, -99.17966], "address": "250 - Darwin-Mariano Escobedo"}},{"type": "Feature", "geometry": {"type": "Point", "coordinates": [-99.152956, 19.442707]}, "properties": {"districtcode": "1", "nearbystations_0": 176, "name": "273 LUIS DONALDO COLOSIO-AV. CENTRAL", "districtname": "Ampliaci\u00f3n Granada", "location_lat": 19.442707, "addressnumber": "S/N", "stationtype": "BIKE", "id": 273, "nearbystations_2": 274, "nearbystations_1": 268, "location_lon": -99.152956, "punto_geo": [19.442707, -99.152956], "address": "273 Luis Donaldo Colosio - Av. Jesus Garcia"}},{"type": "Feature", "geometry": {"type": "Point", "coordinates": [-99.163831, 19.40071]}, "properties": {"districtcode": "1", "nearbystations_0": 164, "name": "278 MIER Y PESADO-OBRERO MUNDIAL", "stationtype": "BIKE", "zipcode": "3103", "location_lat": 19.40071, "addressnumber": "S/N", "districtname": "Ampliaci\u00f3n Granada", "id": 278, "nearbystations_2": 282, "nearbystations_1": 279, "location_lon": -99.163831, "punto_geo": [19.40071, -99.163831], "address": "278 - Mier Y Pesado-Obrero Mundial"}},{"type": "Feature", "geometry": {"type": "Point", "coordinates": [-99.175531, 19.394693]}, "properties": {"districtcode": "1", "nearbystations_0": 304, "name": "305 AVENIDA DEL PARQUE-ARIZONA", "stationtype": "BIKE,TPV", "zipcode": "3810", "location_lat": 19.394693, "addressnumber": "S/N", "districtname": "Ampliaci\u00f3n Granada", "id": 305, "nearbystations_2": 307, "nearbystations_1": 306, "location_lon": -99.175531, "punto_geo": [19.394693, -99.175531], "address": "305 - Avenida Del Parque-Arizona"}},{"type": "Feature", "geometry": {"type": "Point", "coordinates": [-99.178072, 19.393594]}, "properties": {"districtcode": "1", "nearbystations_0": 306, "name": "308 NUEVA YORK-ARIZONA", "stationtype": "BIKE", "zipcode": "3810", "location_lat": 19.393594, "addressnumber": "S/N", "districtname": "Ampliaci\u00f3n Granada", "id": 308, "nearbystations_2": 309, "nearbystations_1": 307, "location_lon": -99.178072, "punto_geo": [19.393594, -99.178072], "address": "308 - Nueva York-Arizona"}},{"type": "Feature", "geometry": {"type": "Point", "coordinates": [-99.18064, 19.432276]}, "properties": {"districtcode": "2", "nearbystations_0": 246, "name": "E247 HERSCHEL-ROUSSEAU", "stationtype": "ELECTRIC_BIKE", "zipcode": "11510", "location_lat": 19.432276, "addressnumber": "S/N", "districtname": "Anzures", "id": 247, "nearbystations_2": 472, "nearbystations_1": 469, "location_lon": -99.18064, "punto_geo": [19.432276, -99.18064], "address": "247 - Herschel-Rousseau"}},{"type": "Feature", "geometry": {"type": "Point", "coordinates": [-99.17519, 19.438143]}, "properties": {"districtcode": "2", "nearbystations_0": 471, "name": "473 BAH\u00cdA DEL ESP\u00cdRITU SANTO-BAH\u00cdA DE BANDERAS", "districtname": "Anzures", "location_lat": 19.438143, "addressnumber": "S/N", "stationtype": "BIKE,TPV", "id": 473, "nearbystations_2": 478, "nearbystations_1": 474, "location_lon": -99.17519, "punto_geo": [19.438143, -99.17519], "address": "473 BAH\u00cdA DEL ESP\u00cdRITU SANTO-BAH\u00cdA DE BANDERAS"}},{"type": "Feature", "geometry": {"type": "Point", "coordinates": [-99.175342, 19.367631]}, "properties": {"districtcode": "ACA", "nearbystations_0": 422, "name": "423 MORAS-JOS\u00c9 MAR\u00cdA RICO (EJE 8)", "stationtype": "BIKE", "zipcode": "3240", "location_lat": 19.367631, "addressnumber": "S/N", "districtname": "Acacias", "id": 423, "nearbystations_2": 437, "nearbystations_1": 436, "location_lon": -99.175342, "punto_geo": [19.367631, -99.175342], "address": "423 - Moras-Jos\u00e9 Mar\u00eda Rico (Eje 8)"}},{"type": "Feature", "geometry": {"type": "Point", "coordinates": [-99.181654, 19.446073]}, "properties": {"districtcode": "AME", "nearbystations_0": 476, "name": "480 LAGO ISEO-AV. MARINA NACIONAL", "districtname": "An\u00e1huac Mariano Escobedo", "location_lat": 19.446073, "addressnumber": "S/N", "stationtype": "BIKE", "id": 480, "nearbystations_2": 478, "nearbystations_1": 477, "location_lon": -99.181654, "punto_geo": [19.446073, -99.181654], "address": "480 LAGO ISEO-AV. MARINA NACIONAL"}},{"type": "Feature", "geometry": {"type": "Point", "coordinates": [-99.152556, 19.443556]}, "properties": {"districtcode": "BUE", "nearbystations_0": 266, "name": "272 AV. CENTRAL-J. MENESES", "districtname": "Buenavista", "location_lat": 19.443556, "addressnumber": "S/N", "stationtype": "BIKE", "id": 272, "nearbystations_2": 271, "nearbystations_1": 267, "location_lon": -99.152556, "punto_geo": [19.443556, -99.152556], "address": "271 Av. Jesus Garcia - J. Meneses"}},{"type": "Feature", "geometry": {"type": "Point", "coordinates": [-99.166959, 19.430922]}, "properties": {"districtcode": "CUA", "nearbystations_0": 1, "name": "6 RIO PANUCO-RIO SENA", "id": 6, "stationtype": "BIKE", "zipcode": "06500", "location_lat": 19.430922, "addressnumber": "S/N", "districtname": "Cuauht\u00e9moc", "nearbystations_3": 10, "nearbystations_2": 5, "nearbystations_1": 3, "location_lon": -99.166959, "punto_geo": [19.430922, -99.166959], "address": "006 - R\u00edo P\u00e1nuco - R\u00edo Sena"}},{"type": "Feature", "geometry": {"type": "Point", "coordinates": [-99.161116, 19.376964]}, "properties": {"districtcode": "DVC", "nearbystations_0": 359, "name": "374 PIT\u00c1GORAS-PILARES", "stationtype": "BIKE,TPV", "zipcode": "3100", "location_lat": 19.376964, "addressnumber": "S/N", "districtname": "Del Valle Centro", "id": 374, "nearbystations_2": 376, "nearbystations_1": 375, "location_lon": -99.161116, "punto_geo": [19.376964, -99.161116], "address": "374 - Anax\u00e1goras-Pilares"}},{"type": "Feature", "geometry": {"type": "Point", "coordinates": [-99.166553, 19.399908]}, "properties": {"districtcode": "DVN", "nearbystations_0": 164, "name": "279 LA MORENA-PROVIDENCIA", "stationtype": "BIKE", "zipcode": "3103", "location_lat": 19.399908, "addressnumber": "S/N", "districtname": "Del Valle Norte", "id": 279, "nearbystations_2": 282, "nearbystations_1": 278, "location_lon": -99.166553, "punto_geo": [19.399908, -99.166553], "address": "279 - La Morena-Providencia"}},{"type": "Feature", "geometry": {"type": "Point", "coordinates": [-99.166157, 19.391456]}, "properties": {"districtcode": "DVN", "nearbystations_0": 299, "name": "317 AVENIDA COYOAC\u00c1N-TORRES ADALID", "stationtype": "BIKE,TPV", "zipcode": "3103", "location_lat": 19.391456, "addressnumber": "S/N", "districtname": "Del Valle Norte", "id": 317, "nearbystations_2": 318, "nearbystations_1": 300, "location_lon": -99.166157, "punto_geo": [19.391456, -99.166157], "address": "317 - Avenida Coyoac\u00e1n-Torres Adalid"}},{"type": "Feature", "geometry": {"type": "Point", "coordinates": [-99.181973, 19.378345]}, "properties": {"districtcode": "EXI", "nearbystations_0": 362, "name": "366 PORFIRIO D\u00cdAZ-AUGUSTO ROD\u00cdN", "stationtype": "BIKE", "zipcode": "3740", "location_lat": 19.378345, "addressnumber": "S/N", "districtname": "Extremadura Insurgentes", "id": 366, "nearbystations_2": 368, "nearbystations_1": 367, "location_lon": -99.181973, "punto_geo": [19.378345, -99.181973], "address": "366 - Porfirio D\u00edaz-Augusto Rod\u00edn"}},{"type": "Feature", "geometry": {"type": "Point", "coordinates": [-99.156105, 19.35827]}, "properties": {"districtcode": "GPM", "nearbystations_0": 431, "name": "E445 RIFF-AVENIDA RIO CHURUBUSCO", "stationtype": "ELECTRIC_BIKE", "zipcode": "3340", "location_lat": 19.35827, "addressnumber": "S/N", "districtname": "General Pedro Maria Anaya", "id": 445, "nearbystations_2": 446, "nearbystations_1": 434, "location_lon": -99.156105, "punto_geo": [19.35827, -99.156105], "address": "445 - Riff-Avenida Rio Churubusco"}},{"type": "Feature", "geometry": {"type": "Point", "coordinates": [-99.171351, 19.411423]}, "properties": {"districtcode": "HIP", "nearbystations_0": 70, "name": "71 AMSTERDAM-MICHOACAN", "stationtype": "BIKE", "zipcode": "06100", "location_lat": 19.411423, "addressnumber": "S/N", "districtname": "Hip\u00f3dromo", "id": 71, "nearbystations_2": 76, "nearbystations_1": 74, "location_lon": -99.171351, "punto_geo": [19.411423, -99.171351], "address": "071 - Amsterdam - Michoacan"}},{"type": "Feature", "geometry": {"type": "Point", "coordinates": [-99.184333, 19.373262]}, "properties": {"districtcode": "INM", "nearbystations_0": 384, "name": "417 GOYA-AUGUSTO ROD\u00cdN", "stationtype": "BIKE,TPV", "zipcode": "3920", "location_lat": 19.373262, "addressnumber": "S/N", "districtname": "Insurgentes Mixcoac", "id": 417, "nearbystations_2": 386, "nearbystations_1": 385, "location_lon": -99.184333, "punto_geo": [19.373262, -99.184333], "address": "417 - Goya-Augusto Rod\u00edn"}},{"type": "Feature", "geometry": {"type": "Point", "coordinates": [-99.205198, 19.442338]}, "properties": {"districtcode": "IRR", "nearbystations_0": 197, "name": "462 PRESA FALC\u00d3N-DANXH\u00d3", "districtname": "Irrigaci\u00f3n", "location_lat": 19.442338, "addressnumber": "S/N", "stationtype": "BIKE", "id": 462, "nearbystations_2": 463, "nearbystations_1": 240, "location_lon": -99.205198, "punto_geo": [19.442338, -99.205198], "address": "462 PRESA FALC\u00d3N-DANXH\u00d3"}},{"type": "Feature", "geometry": {"type": "Point", "coordinates": [-99.173821, 19.395043]}, "properties": {"districtcode": "NAP", "nearbystations_0": 290, "name": "304 MONTESITO-DAKOTA", "stationtype": "BIKE", "zipcode": "3810", "location_lat": 19.395043, "addressnumber": "S/N", "districtname": "N\u00e1poles", "id": 304, "nearbystations_2": 305, "nearbystations_1": 303, "location_lon": -99.173821, "punto_geo": [19.395043, -99.173821], "address": "304 - Montesito-Dakota"}},{"type": "Feature", "geometry": {"type": "Point", "coordinates": [-99.177331, 19.391647]}, "properties": {"districtcode": "NAP", "nearbystations_0": 307, "name": "314 NUERVA YORK-LOUISIANA", "stationtype": "BIKE", "zipcode": "3810", "location_lat": 19.391647, "addressnumber": "S/N", "districtname": "N\u00e1poles", "id": 314, "nearbystations_2": 327, "nearbystations_1": 313, "location_lon": -99.177331, "punto_geo": [19.391647, -99.177331], "address": "314 - Nuerva York-Louisiana"}},{"type": "Feature", "geometry": {"type": "Point", "coordinates": [-99.207932, 19.437014]}, "properties": {"districtcode": "POL", "nearbystations_0": 198, "name": "460 JUAN V\u00c1ZQUEZ DE MELLA-HOMERO", "districtname": "Polanco", "location_lat": 19.437014, "addressnumber": "S/R", "stationtype": "BIKE", "id": 460, "nearbystations_2": 240, "nearbystations_1": 209, "location_lon": -99.207932, "punto_geo": [19.437014, -99.207932], "address": "460 JUAN V\u00c1ZQUEZ DE MELLA-HOMERO"}},{"type": "Feature", "geometry": {"type": "Point", "coordinates": [-99.196965, 19.429314]}, "properties": {"districtcode": "POL", "nearbystations_0": 222, "name": "233 JULIO VERNE-LUIS G. URBINA", "stationtype": "BIKE,TPV", "zipcode": "11510", "location_lat": 19.429314, "addressnumber": "S/N", "districtname": "Polanco", "id": 233, "nearbystations_2": 231, "nearbystations_1": 230, "location_lon": -99.196965, "punto_geo": [19.429314, -99.196965], "address": "233 - Julio Verne-Luis G. Urbina"}},{"type": "Feature", "geometry": {"type": "Point", "coordinates": [-99.171407, 19.420801]}, "properties": {"districtcode": "R-N", "nearbystations_0": 28, "name": "38 COZUMEL-PUEBLA", "stationtype": "BIKE", "zipcode": "06700", "location_lat": 19.420801, "addressnumber": "S/N", "districtname": "Roma Norte", "id": 38, "nearbystations_2": 37, "nearbystations_1": 32, "location_lon": -99.171407, "punto_geo": [19.420801, -99.171407], "address": "038 - Cozumel - PUEBLA"}},{"type": "Feature", "geometry": {"type": "Point", "coordinates": [-99.163312, 19.4206]}, "properties": {"districtcode": "R-N", "nearbystations_0": 126, "name": "129 TONAL\u00c1-DURANGO", "districtname": "Roma Norte", "location_lat": 19.4206, "addressnumber": "S/N", "stationtype": "BIKE", "id": 129, "nearbystations_2": 131, "nearbystations_1": 128, "location_lon": -99.163312, "punto_geo": [19.4206, -99.163312], "address": "129 - Tonal\u00e1-Durango"}},{"type": "Feature", "geometry": {"type": "Point", "coordinates": [-99.15645, 19.420667]}, "properties": {"districtcode": "R-N", "nearbystations_0": 130, "name": "132 COLIMA-FRONTERA", "districtname": "Roma Norte", "location_lat": 19.420667, "addressnumber": "S/N", "stationtype": "BIKE", "id": 132, "nearbystations_2": 135, "nearbystations_1": 133, "location_lon": -99.15645, "punto_geo": [19.420667, -99.15645], "address": "132 - Colima-Frontera"}},{"type": "Feature", "geometry": {"type": "Point", "coordinates": [-99.157081, 19.418774]}, "properties": {"districtcode": "R-N", "nearbystations_0": 132, "name": "137 \u00c1LVARO OBREG\u00d3N-M\u00c9RIDA", "districtname": "Roma Norte", "location_lat": 19.418774, "addressnumber": "S/N", "stationtype": "BIKE", "id": 137, "nearbystations_2": 138, "nearbystations_1": 135, "location_lon": -99.157081, "punto_geo": [19.418774, -99.157081], "address": "137 - \u00c1lvaro Obreg\u00f3n-M\u00e9rida"}},{"type": "Feature", "geometry": {"type": "Point", "coordinates": [-99.166616, 19.406236]}, "properties": {"districtcode": "ROM", "nearbystations_0": 153, "name": "157 TEPIC-TLACOTALPAN", "districtname": "Roma Sur", "location_lat": 19.406236, "addressnumber": "S/N", "stationtype": "BIKE", "id": 157, "nearbystations_2": 161, "nearbystations_1": 154, "location_lon": -99.166616, "punto_geo": [19.406236, -99.166616], "address": "157 - Tepic-Tlacotalpan"}},{"type": "Feature", "geometry": {"type": "Point", "coordinates": [-99.1654145, 19.3684182]}, "properties": {"districtcode": "SCA", "nearbystations_0": 411, "name": "412 PARROQUIA-AVENIDA UNIVERSIDAD", "stationtype": "BIKE,TPV", "zipcode": "3310", "location_lat": 19.3684182, "addressnumber": "S/N", "districtname": "Santa Cruz Atoyac", "id": 412, "nearbystations_2": 426, "nearbystations_1": 425, "location_lon": -99.1654145, "punto_geo": [19.3684182, -99.1654145], "address": "412 - Parroquia-Avenida Universidad"}},{"type": "Feature", "geometry": {"type": "Point", "coordinates": [-99.16158, 19.372147]}, "properties": {"districtcode": "SCA", "nearbystations_0": 400, "name": "401 SAN LORENZO-AVENIDA CUAUHTEMOC", "stationtype": "BIKE", "zipcode": "3310", "location_lat": 19.372147, "addressnumber": "S/N", "districtname": "Santa Cruz Atoyac", "id": 401, "nearbystations_2": 403, "nearbystations_1": 402, "location_lon": -99.16158, "punto_geo": [19.372147, -99.16158], "address": "401 - San Lorenzo-Avenida Cuauhtemoc"}},{"type": "Feature", "geometry": {"type": "Point", "coordinates": [-99.182606, 19.389358]}, "properties": {"districtcode": "SPP", "nearbystations_0": 329, "name": "330 CALLE 15-AVENIDA PATRIOTISMO", "stationtype": "BIKE", "zipcode": "3800", "location_lat": 19.389358, "addressnumber": "S/N", "districtname": "San Pedro de los Pinos", "id": 330, "nearbystations_2": 332, "nearbystations_1": 331, "location_lon": -99.182606, "punto_geo": [19.389358, -99.182606], "address": "330 - Calle 15-Avenida Patriotismo"}},{"type": "Feature", "geometry": {"type": "Point", "coordinates": [-99.158425, 19.436274]}, "properties": {"districtcode": "S-R", "nearbystations_0": 85, "name": "263 SADI CARNOT-G\u00d3MEZ FARIAS", "districtname": "San Rafael", "location_lat": 19.436274, "addressnumber": "S/N", "stationtype": "BIKE,TPV", "id": 263, "nearbystations_2": 256, "nearbystations_1": 86, "location_lon": -99.158425, "punto_geo": [19.436274, -99.158425], "address": "263 - Sadi Carnot - G\u00f3mez Farias"}},{"type": "Feature", "geometry": {"type": "Point", "coordinates": [-99.16402, 19.43767]},